[{"name":"Sant Julià de Lòria, AD","lat":42.46372,"lon":1.49129},{"name":"Ordino, AD","lat":42.55623,"lon":1.53319},{"name":"les Escaldes, AD","lat":42.50729,"lon":1.53414},{"name":"la Massana, AD","lat":42.54499,"lon":1.51483},{"name":"Encamp, AD","lat":42.53474,"lon":1.58014},{"name":"Canillo, AD","lat":42.5676,"lon":1.59756},{"name":"Andorra la Vella, AD","lat":42.50779,"lon":1.52109},{"name":"Warīsān, AE","lat":25.16744,"lon":55.40708},{"name":"Umm Suqaym, AE","lat":25.15491,"lon":55.21015},{"name":"Umm Al Quwain City, AE","lat":25.56473,"lon":55.55517},{"name":"Ţarīf Kalbā, AE","lat":25.0695,"lon":56.33115},{"name":"Ar Rāshidīyah, AE","lat":25.22499,"lon":55.38947},{"name":"Ras Al Khaimah City, AE","lat":25.78953,"lon":55.9432},{"name":"Muzayri‘, AE","lat":23.14355,"lon":53.7881},{"name":"Maşfūţ, AE","lat":24.81089,"lon":56.10657},{"name":"Zayed City, AE","lat":23.65416,"lon":53.70522},{"name":"Khawr Fakkān, AE","lat":25.33132,"lon":56.34199},{"name":"Kalbā, AE","lat":25.0513,"lon":56.35422},{"name":"Jumayrā, AE","lat":25.20795,"lon":55.24969},{"name":"Al Jazīrah al Ḩamrā’, AE","lat":25.7091,"lon":55.80772},{"name":"Dubai, AE","lat":25.07725,"lon":55.30927},{"name":"Dibba Al-Fujairah, AE","lat":25.59246,"lon":56.26176},{"name":"Dibba Al-Hisn, AE","lat":25.61955,"lon":56.27291},{"name":"Dayrah, AE","lat":25.27143,"lon":55.30207},{"name":"Sharjah, AE","lat":25.33737,"lon":55.41206},{"name":"Ar Ruways, AE","lat":24.11028,"lon":52.73056},{"name":"Al Manāmah, AE","lat":25.3299,"lon":56.02188},{"name":"Ḩattā, AE","lat":24.80073,"lon":56.12726},{"name":"Al Fujairah City, AE","lat":25.11641,"lon":56.34141},{"name":"Al Ain City, AE","lat":24.19167,"lon":55.76056},{"name":"Ajman City, AE","lat":25.40177,"lon":55.47878},{"name":"Adh Dhayd, AE","lat":25.28812,"lon":55.88157},{"name":"Abu Dhabi, AE","lat":24.45118,"lon":54.39696},{"name":"Abū Hayl, AE","lat":25.28413,"lon":55.33153},{"name":"As Saţwah, AE","lat":25.22192,"lon":55.27459},{"name":"Nadd al Ḩumr, AE","lat":25.20131,"lon":55.38388},{"name":"Suwayḩān, AE","lat":24.46235,"lon":55.33715},{"name":"Al Ḩamīdīyah, AE","lat":25.40001,"lon":55.52925},{"name":"Al Waheda, AE","lat":25.29173,"lon":55.33822},{"name":"Al Twar First, AE","lat":25.27148,"lon":55.36165},{"name":"AL Twar Second, AE","lat":25.26309,"lon":55.38028},{"name":"Al Qusais Second, AE","lat":25.27148,"lon":55.38603},{"name":"Al Karama, AE","lat":25.24004,"lon":55.30106},{"name":"Al Hudaiba, AE","lat":25.24151,"lon":55.27805},{"name":"Knowledge Village, AE","lat":25.10223,"lon":55.16433},{"name":"The Palm Jumeirah, AE","lat":25.11607,"lon":55.13506},{"name":"Za'abeel, AE","lat":25.22536,"lon":55.305},{"name":"Oud Metha, AE","lat":25.23685,"lon":55.31419},{"name":"Bur Dubai, AE","lat":25.26038,"lon":55.29891},{"name":"Khalifah A City, AE","lat":24.42588,"lon":54.605},{"name":"Shakhbout City, AE","lat":24.36727,"lon":54.63721},{"name":"Mirdif, AE","lat":25.22443,"lon":55.41412},{"name":"Hawr al ‘Anz, AE","lat":25.27744,"lon":55.33675},{"name":"Mankhūl, AE","lat":25.24612,"lon":55.29222},{"name":"Būr Sa‘īd, AE","lat":25.261,"lon":55.33016},{"name":"Nāyf, AE","lat":25.27139,"lon":55.30323},{"name":"Al Murar al Qadīm, AE","lat":25.27576,"lon":55.30738},{"name":"Ar Riqqah, AE","lat":25.26797,"lon":55.31272},{"name":"Al Warqaa, AE","lat":25.19272,"lon":55.42013},{"name":"International City, AE","lat":25.16383,"lon":55.40987},{"name":"Dubai Marina, AE","lat":25.08525,"lon":55.14646},{"name":"Dubai Sports City, AE","lat":25.03878,"lon":55.21725},{"name":"Dubai Internet City, AE","lat":25.09538,"lon":55.16171},{"name":"Al Safa, AE","lat":25.17047,"lon":55.23336},{"name":"Ar Rumaylah, AE","lat":25.40338,"lon":55.4334},{"name":"Mushayrif, AE","lat":25.40977,"lon":55.47106},{"name":"Al Jurf, AE","lat":25.41814,"lon":55.50791},{"name":"Al Majaz, AE","lat":25.32354,"lon":55.38774},{"name":"As Saţwah Sharq, AE","lat":25.23796,"lon":55.28678},{"name":"Dubai Festival City, AE","lat":25.22177,"lon":55.35733},{"name":"Dubai International Financial Centre, AE","lat":25.2106,"lon":55.27787},{"name":"Downtown Dubai, AE","lat":25.19408,"lon":55.2781},{"name":"Dubai Investments Park, AE","lat":25.00827,"lon":55.15682},{"name":"Jebel Ali, AE","lat":25.00255,"lon":55.10811},{"name":"Bani Yas City, AE","lat":24.30978,"lon":54.62944},{"name":"Musaffah, AE","lat":24.35893,"lon":54.48267},{"name":"Al Shamkhah City, AE","lat":24.39268,"lon":54.70779},{"name":"Reef Al Fujairah City, AE","lat":25.14479,"lon":56.24764},{"name":"Sha'biyyat Al Hiyar, AE","lat":24.58242,"lon":55.7467},{"name":"Umm Al Sheif, AE","lat":25.13227,"lon":55.20567},{"name":"Al Bada'a, AE","lat":25.22462,"lon":55.26888},{"name":"Al Muteena, AE","lat":25.27375,"lon":55.32265},{"name":"Al Mizhar First, AE","lat":25.24805,"lon":55.44128},{"name":"Al Mizhar Second, AE","lat":25.24332,"lon":55.4619},{"name":"Dubai Silicon Oasis, AE","lat":25.11985,"lon":55.38718},{"name":"Dubai Motor City, AE","lat":25.04593,"lon":55.24102},{"name":"DAMAC Hills, AE","lat":25.02924,"lon":55.25277},{"name":"Al Furjan, AE","lat":25.02651,"lon":55.14565},{"name":"Business Bay, AE","lat":25.18544,"lon":55.26969},{"name":"Al Qusais 1, AE","lat":25.27925,"lon":55.36995},{"name":"Al Twar 3, AE","lat":25.25159,"lon":55.39408},{"name":"Al Khabaisi, AE","lat":25.26628,"lon":55.33379},{"name":"Al Khawaneej 1, AE","lat":25.24882,"lon":55.48545},{"name":"Halwan, AE","lat":25.34586,"lon":55.42165},{"name":"Al Sajaah, AE","lat":25.31532,"lon":55.63211},{"name":"Lahbab, AE","lat":25.03763,"lon":55.59135},{"name":"Al Madam, AE","lat":24.97355,"lon":55.77781},{"name":"Mohammed Bin Zayed City, AE","lat":24.34794,"lon":54.55368},{"name":"Masdar City, AE","lat":24.43208,"lon":54.61582},{"name":"Kuhsān, AF","lat":34.65389,"lon":61.19778},{"name":"Tukzār, AF","lat":35.94831,"lon":66.42132},{"name":"Zindah Jān, AF","lat":34.34264,"lon":61.74675},{"name":"Zarghūn Shahr, AF","lat":32.84734,"lon":68.44573},{"name":"Zaṟah Sharan, AF","lat":33.14641,"lon":68.79213},{"name":"Zaranj, AF","lat":30.95962,"lon":61.86037},{"name":"Yangī Qal‘ah, AF","lat":37.46572,"lon":69.61131},{"name":"Bāzār-e Yakāwlang, AF","lat":34.73525,"lon":66.97379},{"name":"Tīr Pul, AF","lat":34.59431,"lon":61.26895},{"name":"Tarinkot, AF","lat":32.62998,"lon":65.87806},{"name":"Taloqan, AF","lat":36.73605,"lon":69.53451},{"name":"Tagāw-Bāy, AF","lat":35.69941,"lon":66.06164},{"name":"Tagāb, AF","lat":34.85501,"lon":69.64917},{"name":"Shīnḏanḏ, AF","lat":33.30294,"lon":62.1474},{"name":"Shibirghān, AF","lat":36.66757,"lon":65.7529},{"name":"Shahrak, AF","lat":34.10737,"lon":64.3052},{"name":"Sidqābād, AF","lat":35.02298,"lon":69.35112},{"name":"Sar-e Pul, AF","lat":36.21544,"lon":65.93249},{"name":"Sangīn, AF","lat":32.07275,"lon":64.8359},{"name":"Sang-e Chārak, AF","lat":35.84972,"lon":66.43694},{"name":"Aībak, AF","lat":36.26468,"lon":68.01551},{"name":"Rūdbār, AF","lat":30.15,"lon":62.6},{"name":"Rustāq, AF","lat":37.12604,"lon":69.83045},{"name":"Qarqīn, AF","lat":37.41853,"lon":66.04358},{"name":"Qarchī Gak, AF","lat":37.03999,"lon":66.78891},{"name":"Qarāwul, AF","lat":37.21959,"lon":68.7802},{"name":"Qarah Bāgh, AF","lat":34.94023,"lon":61.77589},{"name":"Qala i Naw, AF","lat":34.98735,"lon":63.12891},{"name":"Qal‘ah-ye Shahr, AF","lat":35.54729,"lon":65.5676},{"name":"Qalāt, AF","lat":32.10575,"lon":66.90833},{"name":"Pārūn, AF","lat":35.42064,"lon":70.92261},{"name":"Pul-e Khumrī, AF","lat":35.94458,"lon":68.71512},{"name":"Pul-e ‘Alam, AF","lat":33.99529,"lon":69.02274},{"name":"Panjāb, AF","lat":34.38795,"lon":67.02327},{"name":"Paghmān, AF","lat":34.58787,"lon":68.95091},{"name":"Uruzgān, AF","lat":32.92775,"lon":66.63253},{"name":"Nīlī, AF","lat":33.72178,"lon":66.13023},{"name":"Nahrīn, AF","lat":36.0649,"lon":69.13343},{"name":"Mīr Bachah Kōṯ, AF","lat":34.74999,"lon":69.11899},{"name":"Mīrābād, AF","lat":30.43624,"lon":61.8383},{"name":"Maymana, AF","lat":35.92139,"lon":64.78361},{"name":"Mehtar Lām, AF","lat":34.67139,"lon":70.20944},{"name":"Mazār-e Sharīf, AF","lat":36.70904,"lon":67.11087},{"name":"Lashkar Gāh, AF","lat":31.59382,"lon":64.37161},{"name":"Larkird, AF","lat":35.48936,"lon":66.66409},{"name":"Kushk, AF","lat":33.29565,"lon":61.95221},{"name":"Kunduz, AF","lat":36.72895,"lon":68.857},{"name":"Khōst, AF","lat":33.33951,"lon":69.92041},{"name":"Khulm, AF","lat":36.69736,"lon":67.69826},{"name":"Khāsh, AF","lat":31.52919,"lon":62.79055},{"name":"Khān Neshīn, AF","lat":30.5488,"lon":63.7888},{"name":"Khandūd, AF","lat":36.95127,"lon":72.318},{"name":"Khanabad, AF","lat":36.68304,"lon":69.11279},{"name":"Karukh, AF","lat":34.48108,"lon":62.5863},{"name":"Kandahār, AF","lat":31.61332,"lon":65.71013},{"name":"Kabul, AF","lat":34.52813,"lon":69.17233},{"name":"Jurm, AF","lat":36.86477,"lon":70.83421},{"name":"Jalālābād, AF","lat":34.42647,"lon":70.45153},{"name":"Jabal os Saraj, AF","lat":35.11833,"lon":69.23778},{"name":"Herāt, AF","lat":34.34817,"lon":62.19967},{"name":"Ghormach, AF","lat":35.73062,"lon":63.78264},{"name":"Ghazni, AF","lat":33.55391,"lon":68.42096},{"name":"Gereshk, AF","lat":31.82089,"lon":64.57005},{"name":"Gardez, AF","lat":33.59744,"lon":69.22592},{"name":"Fayzabad, AF","lat":37.11664,"lon":70.58002},{"name":"Farkhār, AF","lat":36.57288,"lon":69.85783},{"name":"Farah, AF","lat":32.37451,"lon":62.11638},{"name":"Eslam Qaleh, AF","lat":34.66667,"lon":61.06667},{"name":"Imām Şāḩib, AF","lat":37.18897,"lon":68.93644},{"name":"Dasht-e Archī, AF","lat":37.13333,"lon":69.16667},{"name":"Darzāb, AF","lat":35.97744,"lon":65.37828},{"name":"Markaz-e Ḩukūmat-e Darwēshān, AF","lat":31.13231,"lon":64.1934},{"name":"Chīras, AF","lat":35.41674,"lon":65.98234},{"name":"Charikar, AF","lat":35.01361,"lon":69.17139},{"name":"Chahār Burj, AF","lat":34.24475,"lon":62.19165},{"name":"Fayrōz Kōh, AF","lat":34.51952,"lon":65.25093},{"name":"Muhmand Dara, AF","lat":34.24749,"lon":70.87218},{"name":"Baraki Barak, AF","lat":33.96744,"lon":68.9492},{"name":"Bāmyān, AF","lat":34.82156,"lon":67.82734},{"name":"Balkh, AF","lat":36.75635,"lon":66.8972},{"name":"Baghlān, AF","lat":36.13068,"lon":68.70829},{"name":"Ḩukūmatī Azrah, AF","lat":34.17355,"lon":69.64573},{"name":"Ārt Khwājah, AF","lat":37.08571,"lon":69.47958},{"name":"Āsmār, AF","lat":35.03333,"lon":71.35809},{"name":"Ashkāsham, AF","lat":36.68333,"lon":71.53333},{"name":"Asadābād, AF","lat":34.87311,"lon":71.14697},{"name":"Andkhōy, AF","lat":36.95293,"lon":65.12376},{"name":"Anār Darah, AF","lat":32.7587,"lon":61.65397},{"name":"‘Alāqahdārī Dīshū, AF","lat":30.43206,"lon":63.29802},{"name":"Bāzārak, AF","lat":35.31292,"lon":69.51519},{"name":"Maydanshakhr, AF","lat":34.39561,"lon":68.86618},{"name":"Markaz-e Woluswalī-ye Āchīn, AF","lat":34.12583,"lon":70.70778},{"name":"Sharan, AF","lat":33.17568,"lon":68.73045},{"name":"Saint John’s, AG","lat":17.12096,"lon":-61.84329},{"name":"Piggotts, AG","lat":17.11667,"lon":-61.8},{"name":"Parham, AG","lat":17.09682,"lon":-61.77046},{"name":"Falmouth, AG","lat":17.02741,"lon":-61.78136},{"name":"Codrington, AG","lat":17.6394,"lon":-61.82437},{"name":"Bolands, AG","lat":17.06565,"lon":-61.87466},{"name":"West End Village, AI","lat":18.17191,"lon":-63.14941},{"name":"The Valley, AI","lat":18.21704,"lon":-63.05783},{"name":"The Quarter, AI","lat":18.20799,"lon":-63.04178},{"name":"Farrington, AI","lat":18.215,"lon":-63.02238},{"name":"Stoney Ground, AI","lat":18.22026,"lon":-63.04607},{"name":"South Hill Village, AI","lat":18.19201,"lon":-63.08779},{"name":"Sandy Ground Village, AI","lat":18.20118,"lon":-63.08998},{"name":"North Side, AI","lat":18.22919,"lon":-63.04401},{"name":"North Hill Village, AI","lat":18.20542,"lon":-63.07847},{"name":"Island Harbour, AI","lat":18.25601,"lon":-63.0102},{"name":"George Hill, AI","lat":18.19939,"lon":-63.0665},{"name":"East End Village, AI","lat":18.23333,"lon":-63},{"name":"Blowing Point Village, AI","lat":18.17648,"lon":-63.09375},{"name":"Sandy Hill, AI","lat":18.22104,"lon":-63.01329},{"name":"Sarandë, AL","lat":39.87534,"lon":20.00477},{"name":"Delvinë, AL","lat":39.95111,"lon":20.09778},{"name":"Tepelenë, AL","lat":40.29583,"lon":20.01917},{"name":"Shupenzë, AL","lat":41.53,"lon":20.42361},{"name":"Rajcë, AL","lat":41.09028,"lon":20.57639},{"name":"Përrenjas, AL","lat":41.07306,"lon":20.54889},{"name":"Pogradec, AL","lat":40.9025,"lon":20.6525},{"name":"Peshkopi, AL","lat":41.685,"lon":20.42889},{"name":"Përmet, AL","lat":40.23361,"lon":20.35167},{"name":"Librazhd, AL","lat":41.17944,"lon":20.315},{"name":"Kukës, AL","lat":42.07694,"lon":20.42194},{"name":"Korçë, AL","lat":40.61861,"lon":20.78083},{"name":"Klos, AL","lat":41.50694,"lon":20.08667},{"name":"Hotolisht, AL","lat":41.15667,"lon":20.39722},{"name":"Gramsh, AL","lat":40.86972,"lon":20.18444},{"name":"Gjirokastër, AL","lat":40.07583,"lon":20.13889},{"name":"Ersekë, AL","lat":40.33778,"lon":20.67889},{"name":"Elbasan, AL","lat":41.1125,"lon":20.08222},{"name":"Burrel, AL","lat":41.61028,"lon":20.00889},{"name":"Bulqizë, AL","lat":41.49167,"lon":20.22194},{"name":"Bilisht, AL","lat":40.6275,"lon":20.99},{"name":"Librazhd-Qendër, AL","lat":41.19694,"lon":20.33556},{"name":"Zharrëz, AL","lat":40.70917,"lon":19.64972},{"name":"Zall-Herr, AL","lat":41.38944,"lon":19.8275},{"name":"Xhafzotaj, AL","lat":41.34444,"lon":19.5475},{"name":"Vlorë, AL","lat":40.4686,"lon":19.48318},{"name":"Velabisht, AL","lat":40.70167,"lon":19.93222},{"name":"Ura Vajgurore, AL","lat":40.76889,"lon":19.87778},{"name":"Tirana, AL","lat":41.32744,"lon":19.81866},{"name":"Shkodër, AL","lat":42.06828,"lon":19.51258},{"name":"Shijak, AL","lat":41.34556,"lon":19.56722},{"name":"Shëngjin, AL","lat":41.81361,"lon":19.59389},{"name":"Selenicë, AL","lat":40.53056,"lon":19.63583},{"name":"Rrogozhinë, AL","lat":41.07639,"lon":19.66528},{"name":"Rrëshen, AL","lat":41.7675,"lon":19.87556},{"name":"Roskovec, AL","lat":40.7375,"lon":19.70222},{"name":"Pukë, AL","lat":42.04444,"lon":19.89972},{"name":"Poshnjë, AL","lat":40.78028,"lon":19.84417},{"name":"Petrelë, AL","lat":41.25306,"lon":19.85306},{"name":"Perondi, AL","lat":40.77889,"lon":19.92306},{"name":"Peqin, AL","lat":41.04611,"lon":19.75111},{"name":"Patos Fshat, AL","lat":40.64278,"lon":19.65083},{"name":"Patos, AL","lat":40.68333,"lon":19.61944},{"name":"Papër, AL","lat":41.05167,"lon":19.96083},{"name":"Otllak, AL","lat":40.74389,"lon":19.93528},{"name":"Novoselë, AL","lat":40.625,"lon":19.46694},{"name":"Nikël, AL","lat":41.44417,"lon":19.74833},{"name":"Ndroq, AL","lat":41.26389,"lon":19.65583},{"name":"Mamurras, AL","lat":41.5775,"lon":19.69222},{"name":"Lushnjë, AL","lat":40.94194,"lon":19.705},{"name":"Lezhë, AL","lat":41.78361,"lon":19.64361},{"name":"Laç, AL","lat":41.63556,"lon":19.71306},{"name":"Kutalli, AL","lat":40.78389,"lon":19.78667},{"name":"Kuçovë, AL","lat":40.80028,"lon":19.91667},{"name":"Krujë, AL","lat":41.50917,"lon":19.79278},{"name":"Kozarë, AL","lat":40.83083,"lon":19.90056},{"name":"Kavajë, AL","lat":41.18556,"lon":19.55694},{"name":"Kamëz, AL","lat":41.38167,"lon":19.76028},{"name":"Golem, AL","lat":40.96778,"lon":19.68528},{"name":"Fushë-Krujë, AL","lat":41.47833,"lon":19.71778},{"name":"Fier-Çifçi, AL","lat":40.71667,"lon":19.56667},{"name":"Fier, AL","lat":40.72389,"lon":19.55611},{"name":"Durrës, AL","lat":41.32355,"lon":19.45469},{"name":"Cërrik, AL","lat":41.03167,"lon":19.97583},{"name":"Berat, AL","lat":40.70583,"lon":19.95222},{"name":"Yeghegnadzor, AM","lat":39.7644,"lon":45.33268},{"name":"Vedi, AM","lat":39.91291,"lon":44.72083},{"name":"Vayk, AM","lat":39.69026,"lon":45.46919},{"name":"Sisian, AM","lat":39.52191,"lon":46.02696},{"name":"Kapan, AM","lat":39.20762,"lon":46.40678},{"name":"Kajaran, AM","lat":39.15091,"lon":46.15673},{"name":"Goris, AM","lat":39.51111,"lon":46.34168},{"name":"Artashat, AM","lat":39.95484,"lon":44.54874},{"name":"Ararat, AM","lat":39.85494,"lon":44.6947},{"name":"Ararat village, AM","lat":39.83166,"lon":44.70489},{"name":"Karmirgyugh, AM","lat":40.33103,"lon":45.14598},{"name":"Margara, AM","lat":40.03332,"lon":44.18048},{"name":"Zolakar, AM","lat":40.12512,"lon":45.38068},{"name":"Yerevan, AM","lat":40.17765,"lon":44.5126},{"name":"Yeranos, AM","lat":40.20428,"lon":45.19209},{"name":"Vagharshapat, AM","lat":40.16557,"lon":44.29462},{"name":"Yeghvard, AM","lat":40.32293,"lon":44.48418},{"name":"Vardenis, AM","lat":40.1827,"lon":45.73156},{"name":"Vardenik, AM","lat":40.13722,"lon":45.42914},{"name":"Tashir, AM","lat":41.11922,"lon":44.28649},{"name":"Stepanavan, AM","lat":41.00995,"lon":44.38531},{"name":"Spitak, AM","lat":40.83131,"lon":44.27019},{"name":"Nubarashen, AM","lat":40.09075,"lon":44.5519},{"name":"Sevan, AM","lat":40.548,"lon":44.95314},{"name":"Sarukhan, AM","lat":40.29169,"lon":45.13068},{"name":"Proshyan, AM","lat":40.24731,"lon":44.41949},{"name":"Parakar, AM","lat":40.16388,"lon":44.4057},{"name":"Oshakan, AM","lat":40.26392,"lon":44.31671},{"name":"Sardarapat, AM","lat":40.13206,"lon":44.00969},{"name":"Nor Kharberd, AM","lat":40.09168,"lon":44.48053},{"name":"Nor Geghi, AM","lat":40.31668,"lon":44.57785},{"name":"Noratus, AM","lat":40.37793,"lon":45.18048},{"name":"Nor Hachn, AM","lat":40.30296,"lon":44.58314},{"name":"Nerkin Getashen, AM","lat":40.14172,"lon":45.27087},{"name":"Mkhchyan, AM","lat":40.02228,"lon":44.4917},{"name":"Metsavan, AM","lat":41.20156,"lon":44.22877},{"name":"Masis, AM","lat":40.06595,"lon":44.43669},{"name":"Martuni, AM","lat":40.14028,"lon":45.30232},{"name":"Maralik, AM","lat":40.57595,"lon":43.87059},{"name":"Lichk, AM","lat":40.15933,"lon":45.23467},{"name":"Vanadzor, AM","lat":40.8074,"lon":44.49704},{"name":"Karanlukh, AM","lat":40.10444,"lon":45.28972},{"name":"Gavar, AM","lat":40.35398,"lon":45.12386},{"name":"Ijevan, AM","lat":40.88037,"lon":45.14776},{"name":"Hrazdan, AM","lat":40.5169,"lon":44.75591},{"name":"Armavir, AM","lat":40.15553,"lon":44.0388},{"name":"Gyumri, AM","lat":40.79305,"lon":43.84635},{"name":"Gugark, AM","lat":40.8046,"lon":44.54025},{"name":"Garni, AM","lat":40.11931,"lon":44.73442},{"name":"Jrvezh, AM","lat":40.18889,"lon":44.62414},{"name":"Dilijan, AM","lat":40.74037,"lon":44.86344},{"name":"Davtashen, AM","lat":40.21642,"lon":44.48088},{"name":"Charentsavan, AM","lat":40.40289,"lon":44.64447},{"name":"Chambarak, AM","lat":40.59655,"lon":45.35498},{"name":"Byureghavan, AM","lat":40.31335,"lon":44.59685},{"name":"Byurakan, AM","lat":40.33894,"lon":44.27275},{"name":"Berd, AM","lat":40.88066,"lon":45.38901},{"name":"Azatan, AM","lat":40.71959,"lon":43.82727},{"name":"Avan, AM","lat":40.21436,"lon":44.57846},{"name":"Ashtarak, AM","lat":40.2976,"lon":44.36152},{"name":"Artik, AM","lat":40.61918,"lon":43.97207},{"name":"Arinj, AM","lat":40.23356,"lon":44.58209},{"name":"Aragatsavan, AM","lat":40.32121,"lon":43.66205},{"name":"Aparan, AM","lat":40.59297,"lon":44.35945},{"name":"Alaverdi, AM","lat":41.09766,"lon":44.67316},{"name":"Akhuryan, AM","lat":40.78081,"lon":43.90037},{"name":"Abovyan, AM","lat":40.2717,"lon":44.63342},{"name":"Zovuni, AM","lat":40.23307,"lon":44.51129},{"name":"Kasakh, AM","lat":40.23555,"lon":44.45162},{"name":"Metsamor, AM","lat":40.14459,"lon":44.11484},{"name":"Ayntap, AM","lat":40.09659,"lon":44.4646},{"name":"Geghhovit, AM","lat":40.10479,"lon":45.2855},{"name":"Erebuni, AM","lat":40.13309,"lon":44.53009},{"name":"Nor Nork, AM","lat":40.19661,"lon":44.5669},{"name":"Nork-Marash, AM","lat":40.17417,"lon":44.54083},{"name":"Ajapnyak, AM","lat":40.19917,"lon":44.47056},{"name":"Kanaker-Zeytun, AM","lat":40.22,"lon":44.53833},{"name":"Malatia-Sebastia, AM","lat":40.17396,"lon":44.4457},{"name":"Kentron, AM","lat":40.17806,"lon":44.51303},{"name":"Shengavit, AM","lat":40.1557,"lon":44.4779},{"name":"Arabkir, AM","lat":40.20624,"lon":44.50365},{"name":"Saurimo, AO","lat":-9.66078,"lon":20.39155},{"name":"Lucapa, AO","lat":-8.41915,"lon":20.74466},{"name":"Dundo, AO","lat":-7.36643,"lon":20.81557},{"name":"Chitato, AO","lat":-7.3,"lon":20.73333},{"name":"Cassanguidi, AO","lat":-7.48367,"lon":21.30339},{"name":"Muconda, AO","lat":-10.59236,"lon":21.31805},{"name":"Mavinga, AO","lat":-15.79347,"lon":20.36374},{"name":"Lumbala, AO","lat":-14.10165,"lon":21.43531},{"name":"Luau, AO","lat":-10.70727,"lon":22.22466},{"name":"Léua, AO","lat":-11.65753,"lon":20.44772},{"name":"Jamba, AO","lat":-17.5,"lon":22.66667},{"name":"Cameia, AO","lat":-11.69055,"lon":20.83922},{"name":"Dala, AO","lat":-11.03333,"lon":20.2},{"name":"Cazombo, AO","lat":-11.89914,"lon":22.90216},{"name":"Camanongue, AO","lat":-11.4361,"lon":20.16459},{"name":"Nzagi, AO","lat":-8.38549,"lon":15.30126},{"name":"Uíge, AO","lat":-7.60874,"lon":15.06131},{"name":"Tombôco, AO","lat":-6.80517,"lon":13.33017},{"name":"Soyo, AO","lat":-6.1349,"lon":12.36894},{"name":"Songo, AO","lat":-7.35207,"lon":14.84629},{"name":"Sanza Pombo, AO","lat":-7.31473,"lon":16.0024},{"name":"Quibaxe, AO","lat":-8.50055,"lon":14.58589},{"name":"Puri, AO","lat":-7.69468,"lon":15.65416},{"name":"Ambrizette, AO","lat":-7.23116,"lon":12.8666},{"name":"Negage, AO","lat":-7.75938,"lon":15.2722},{"name":"N'dalatando, AO","lat":-9.29782,"lon":14.91162},{"name":"Mussende, AO","lat":-10.5143,"lon":16.0199},{"name":"Mbanza Kongo, AO","lat":-6.26667,"lon":14.23833},{"name":"Maquela do Zombo, AO","lat":-6.05716,"lon":15.10971},{"name":"Malanje, AO","lat":-9.54015,"lon":16.34096},{"name":"Lucala, AO","lat":-9.27268,"lon":15.25206},{"name":"Lubalo, AO","lat":-9.15445,"lon":19.28136},{"name":"Luanda, AO","lat":-8.83682,"lon":13.23432},{"name":"Cunda diá Baze, AO","lat":-8.90769,"lon":17.05339},{"name":"Golungo Alto, AO","lat":-9.13333,"lon":14.76667},{"name":"Dondo, AO","lat":-9.68456,"lon":14.42788},{"name":"Dondo, AO","lat":-9.05,"lon":15.31667},{"name":"Damba, AO","lat":-6.67868,"lon":15.13128},{"name":"Cuímba, AO","lat":-6.12085,"lon":14.62086},{"name":"Cuilo, AO","lat":-8.23619,"lon":19.52566},{"name":"Cuango-Luzamba, AO","lat":-9.14583,"lon":18.04453},{"name":"Cazombo, AO","lat":-8.73204,"lon":15.37124},{"name":"Caxito, AO","lat":-8.57848,"lon":13.66425},{"name":"Cangandala, AO","lat":-9.78333,"lon":16.43333},{"name":"Camabatela, AO","lat":-8.18812,"lon":15.37495},{"name":"Calandula, AO","lat":-9.08981,"lon":15.95382},{"name":"Cacuso, AO","lat":-9.42102,"lon":15.74668},{"name":"Cacongo, AO","lat":-5.23864,"lon":12.14428},{"name":"Cabinda, AO","lat":-5.56198,"lon":12.19476},{"name":"Buco Zau, AO","lat":-4.76667,"lon":12.55},{"name":"Belize, AO","lat":-4.65,"lon":12.76667},{"name":"Barra do Dande, AO","lat":-8.47175,"lon":13.37011},{"name":"Banza Damba, AO","lat":-6.88831,"lon":15.01522},{"name":"Bailundo, AO","lat":-9.57499,"lon":15.99442},{"name":"Ambriz, AO","lat":-7.86232,"lon":13.11935},{"name":"Gama, AO","lat":-8.5675,"lon":13.47639},{"name":"Buco, AO","lat":-9.55833,"lon":16.14639},{"name":"Xangongo, AO","lat":-16.7444,"lon":14.97494},{"name":"Alto Hama, AO","lat":-12.23333,"lon":15.55},{"name":"Uacu Cungo, AO","lat":-11.35669,"lon":15.11719},{"name":"Virei, AO","lat":-15.727,"lon":12.94961},{"name":"Ucuma, AO","lat":-12.96121,"lon":15.05958},{"name":"Ucu Seles, AO","lat":-11.41237,"lon":14.30663},{"name":"Tômbua, AO","lat":-15.80394,"lon":11.84485},{"name":"Sumbe, AO","lat":-11.20605,"lon":13.84371},{"name":"Quipungo, AO","lat":-14.81909,"lon":14.53504},{"name":"Quilenda, AO","lat":-11.46667,"lon":14.13333},{"name":"Quibala, AO","lat":-10.73366,"lon":14.97995},{"name":"Porto Amboim, AO","lat":-10.73251,"lon":13.76844},{"name":"Ondjiva, AO","lat":-17.06667,"lon":15.73333},{"name":"Nharêa, AO","lat":-11.47512,"lon":16.96496},{"name":"Mossamedes, AO","lat":-15.19611,"lon":12.15222},{"name":"Mungo, AO","lat":-11.83268,"lon":16.23613},{"name":"Menongue, AO","lat":-14.6585,"lon":17.69099},{"name":"Matala, AO","lat":-14.73272,"lon":15.03479},{"name":"Luquembo, AO","lat":-10.73912,"lon":17.71766},{"name":"Luena, AO","lat":-11.78333,"lon":19.91667},{"name":"Lubango, AO","lat":-14.91717,"lon":13.4925},{"name":"Longonjo, AO","lat":-12.90795,"lon":15.24845},{"name":"Londuimbali, AO","lat":-12.23712,"lon":15.31697},{"name":"Lobito, AO","lat":-12.3644,"lon":13.53601},{"name":"Cuíto, AO","lat":-12.38333,"lon":16.93333},{"name":"Catchiungo, AO","lat":-12.56598,"lon":16.22589},{"name":"Huambo, AO","lat":-12.77611,"lon":15.73917},{"name":"Ganda, AO","lat":-13.01592,"lon":14.63502},{"name":"Gabela, AO","lat":-10.85147,"lon":14.37993},{"name":"Ecunna, AO","lat":-12.67889,"lon":15.50556},{"name":"Ebo, AO","lat":-11.05,"lon":14.71667},{"name":"Dombe Grande, AO","lat":-12.95167,"lon":13.1025},{"name":"Dala, AO","lat":-13.78333,"lon":16.71667},{"name":"Cunhinga, AO","lat":-12.23333,"lon":16.78333},{"name":"Cuemba, AO","lat":-12.15,"lon":18.08333},{"name":"Cuchi, AO","lat":-14.64978,"lon":16.89929},{"name":"Cubal, AO","lat":-13.03865,"lon":14.2455},{"name":"Conda, AO","lat":-11.10862,"lon":14.33621},{"name":"Chongoroi, AO","lat":-13.57418,"lon":13.94062},{"name":"Chitembo, AO","lat":-13.55,"lon":16.63333},{"name":"Chissamba, AO","lat":-12.16667,"lon":17.33333},{"name":"Chipindo, AO","lat":-13.81419,"lon":15.79041},{"name":"Chinguar, AO","lat":-12.55708,"lon":16.33805},{"name":"Chicomba, AO","lat":-14.13333,"lon":14.91667},{"name":"Chibia, AO","lat":-15.18315,"lon":13.69909},{"name":"Cela, AO","lat":-11.42173,"lon":15.12345},{"name":"Catumbela, AO","lat":-12.43002,"lon":13.54677},{"name":"Catabola, AO","lat":-12.15,"lon":17.28333},{"name":"Capunda, AO","lat":-11.13333,"lon":14.46667},{"name":"Camucuio, AO","lat":-14.11667,"lon":13.25},{"name":"Cambundi Catembo, AO","lat":-10.07531,"lon":17.55058},{"name":"Camacupa, AO","lat":-12.01667,"lon":17.48333},{"name":"Caluquembe, AO","lat":-13.86667,"lon":14.43333},{"name":"Calulo, AO","lat":-10.00055,"lon":14.89519},{"name":"Calucinga, AO","lat":-11.32281,"lon":16.19588},{"name":"Calandula, AO","lat":-13.46667,"lon":19.61667},{"name":"Calai, AO","lat":-17.88896,"lon":19.7706},{"name":"Caimbambo, AO","lat":-13.02172,"lon":14.00283},{"name":"Cahama, AO","lat":-16.28556,"lon":14.30962},{"name":"Caconda, AO","lat":-13.73564,"lon":15.0618},{"name":"Cacolo, AO","lat":-10.14503,"lon":19.26598},{"name":"Caála, AO","lat":-12.8525,"lon":15.56056},{"name":"Bocoio, AO","lat":-12.47017,"lon":14.13688},{"name":"Bibala, AO","lat":-14.7665,"lon":13.34912},{"name":"Benguela, AO","lat":-12.57674,"lon":13.40268},{"name":"Balombo, AO","lat":-12.35426,"lon":14.77232},{"name":"Baía Farta, AO","lat":-12.60417,"lon":13.19667},{"name":"Andulo, AO","lat":-11.48676,"lon":16.69663},{"name":"Cambundi, AO","lat":-7.46856,"lon":17.03769},{"name":"Cafunfo, AO","lat":-8.7672,"lon":17.99572},{"name":"Santa Clara, AO","lat":-10.19156,"lon":15.43408},{"name":"Quissecula, AO","lat":-11.39223,"lon":15.09201},{"name":"Cambundi, AO","lat":-10.89481,"lon":17.76402},{"name":"Praia Bebe, AO","lat":-12.40959,"lon":13.50349},{"name":"Chela, AO","lat":-12.30261,"lon":15.43358},{"name":"Camboio, AO","lat":-12.92651,"lon":14.09888},{"name":"Calonamba, AO","lat":-13.77395,"lon":15.09111},{"name":"Zárate, AR","lat":-34.09584,"lon":-59.02423},{"name":"Colonia Wanda, AR","lat":-25.97337,"lon":-54.56304},{"name":"Villa Ortúzar, AR","lat":-34.57973,"lon":-58.46829},{"name":"Villa Ocampo, AR","lat":-28.48726,"lon":-59.35421},{"name":"María Grande, AR","lat":-31.66503,"lon":-59.89969},{"name":"Villa Lugano, AR","lat":-34.67907,"lon":-58.47263},{"name":"Villa Hernandarias, AR","lat":-31.23097,"lon":-59.98464},{"name":"Villaguay, AR","lat":-31.86767,"lon":-59.02701},{"name":"Villa Gesell, AR","lat":-37.26394,"lon":-56.97304},{"name":"Villa Elisa, AR","lat":-32.1632,"lon":-58.40082},{"name":"Villa de Mayo, AR","lat":-34.5108,"lon":-58.68059},{"name":"Veinticinco de Mayo, AR","lat":-27.37796,"lon":-54.74505},{"name":"Urdinarrain, AR","lat":-32.69104,"lon":-58.88842},{"name":"Tortuguitas, AR","lat":-34.47513,"lon":-58.75367},{"name":"Tigre, AR","lat":-34.42603,"lon":-58.57962},{"name":"Tandil, AR","lat":-37.3287,"lon":-59.1369},{"name":"San Vicente, AR","lat":-26.61667,"lon":-54.13333},{"name":"Santo Tomé, AR","lat":-28.55104,"lon":-56.04125},{"name":"Santos Lugares, AR","lat":-34.60306,"lon":-58.54074},{"name":"Santo Pipó, AR","lat":-27.14147,"lon":-55.40945},{"name":"Santa Rosa, AR","lat":-28.26572,"lon":-58.12053},{"name":"Santa Lucía, AR","lat":-28.98984,"lon":-59.10076},{"name":"Santa Elena, AR","lat":-30.94432,"lon":-59.78832},{"name":"San Salvador, AR","lat":-31.62494,"lon":-58.50517},{"name":"San Pedro, AR","lat":-33.67918,"lon":-59.66633},{"name":"San Pedro, AR","lat":-26.6218,"lon":-54.10902},{"name":"San Miguel, AR","lat":-27.99833,"lon":-57.58735},{"name":"San Luis del Palmar, AR","lat":-27.50766,"lon":-58.55625},{"name":"San Lorenzo, AR","lat":-28.13442,"lon":-58.76685},{"name":"San José de Feliciano, AR","lat":-30.38546,"lon":-58.75025},{"name":"San José, AR","lat":-27.76916,"lon":-55.78033},{"name":"San Javier, AR","lat":-30.58072,"lon":-59.92962},{"name":"San Isidro, AR","lat":-34.46971,"lon":-58.52111},{"name":"San Clemente del Tuyú, AR","lat":-36.35419,"lon":-56.72568},{"name":"San Antonio de Padua, AR","lat":-34.66267,"lon":-58.69819},{"name":"Saladas, AR","lat":-28.25504,"lon":-58.62386},{"name":"Rosario del Tala, AR","lat":-32.30073,"lon":-59.13928},{"name":"Retiro, AR","lat":-34.58333,"lon":-58.38333},{"name":"Resistencia, AR","lat":-27.46363,"lon":-58.98665},{"name":"Reconquista, AR","lat":-29.15,"lon":-59.65},{"name":"Quilmes, AR","lat":-34.72065,"lon":-58.25454},{"name":"Puerto Vilelas, AR","lat":-27.51083,"lon":-58.94179},{"name":"Puerto Tirol, AR","lat":-27.37382,"lon":-59.08927},{"name":"Puerto Rico, AR","lat":-26.8089,"lon":-55.02147},{"name":"Puerto Piray, AR","lat":-26.46937,"lon":-54.70736},{"name":"Puerto Libertad, AR","lat":-25.91958,"lon":-54.58229},{"name":"Puerto Iguazú, AR","lat":-25.59912,"lon":-54.57355},{"name":"Puerto Esperanza, AR","lat":-26.02267,"lon":-54.61356},{"name":"Puerto Eldorado, AR","lat":-26.40843,"lon":-54.69463},{"name":"Presidencia de la Plaza, AR","lat":-27.00213,"lon":-59.84476},{"name":"Posadas, AR","lat":-27.39184,"lon":-55.92379},{"name":"Pontevedra, AR","lat":-34.74947,"lon":-58.70158},{"name":"Pirané, AR","lat":-25.73271,"lon":-59.10989},{"name":"Pilar, AR","lat":-34.45867,"lon":-58.91398},{"name":"Perugorría, AR","lat":-29.34077,"lon":-58.60826},{"name":"Paso de los Libres, AR","lat":-29.71251,"lon":-57.08771},{"name":"Paso de la Patria, AR","lat":-27.31738,"lon":-58.57264},{"name":"Panambí, AR","lat":-27.72199,"lon":-54.91486},{"name":"Pampa del Indio, AR","lat":-26.04982,"lon":-59.93728},{"name":"Palo Santo, AR","lat":-25.56461,"lon":-59.3378},{"name":"Oberá, AR","lat":-27.48683,"lon":-55.11994},{"name":"Nuestra Señora del Rosario de Caá Catí, AR","lat":-27.75215,"lon":-57.622},{"name":"Nogoyá, AR","lat":-32.39375,"lon":-59.78955},{"name":"Necochea, AR","lat":-38.5545,"lon":-58.73961},{"name":"Muñiz, AR","lat":-34.55622,"lon":-58.70739},{"name":"Morón, AR","lat":-34.65118,"lon":-58.62205},{"name":"Monte Caseros, AR","lat":-30.2518,"lon":-57.63537},{"name":"Montecarlo, AR","lat":-26.56849,"lon":-54.7579},{"name":"Mocoretá, AR","lat":-30.61798,"lon":-57.96705},{"name":"Merlo, AR","lat":-34.66536,"lon":-58.72744},{"name":"Mercedes, AR","lat":-34.65072,"lon":-59.43143},{"name":"Mercedes, AR","lat":-29.18416,"lon":-58.07519},{"name":"Mburucuyá, AR","lat":-28.04532,"lon":-58.22835},{"name":"Haedo, AR","lat":-34.64239,"lon":-58.59212},{"name":"Margarita Belén, AR","lat":-27.25902,"lon":-58.97157},{"name":"Mar del Plata, AR","lat":-38.00042,"lon":-57.5562},{"name":"Malabrigo, AR","lat":-29.34835,"lon":-59.96935},{"name":"Maciá, AR","lat":-32.17254,"lon":-59.4006},{"name":"Luján, AR","lat":-34.5664,"lon":-59.11478},{"name":"Los Polvorines, AR","lat":-34.50316,"lon":-58.70596},{"name":"Las Toscas, AR","lat":-28.35436,"lon":-59.25884},{"name":"Larroque, AR","lat":-33.03511,"lon":-58.99982},{"name":"La Plata, AR","lat":-34.92126,"lon":-57.95442},{"name":"La Paz, AR","lat":-30.74179,"lon":-59.64517},{"name":"La Leonesa, AR","lat":-27.03751,"lon":-58.70498},{"name":"La Cruz, AR","lat":-29.17625,"lon":-56.64262},{"name":"Jardín América, AR","lat":-27.04346,"lon":-55.22698},{"name":"Ituzaingó, AR","lat":-27.58504,"lon":-56.68707},{"name":"Itatí, AR","lat":-27.26915,"lon":-58.24249},{"name":"Ibarreta, AR","lat":-25.2144,"lon":-59.8582},{"name":"Hurlingham, AR","lat":-34.5904,"lon":-58.62904},{"name":"Gualeguaychú, AR","lat":-33.00777,"lon":-58.51836},{"name":"Gualeguay, AR","lat":-33.14091,"lon":-59.31257},{"name":"Goya, AR","lat":-29.13995,"lon":-59.26343},{"name":"Gobernador Roca, AR","lat":-27.19057,"lon":-55.46927},{"name":"Gobernador Virasora, AR","lat":-28.05,"lon":-56.03333},{"name":"General Pacheco, AR","lat":-34.45256,"lon":-58.64312},{"name":"General José de San Martín, AR","lat":-26.53643,"lon":-59.34138},{"name":"Garupá, AR","lat":-27.48315,"lon":-55.82924},{"name":"Garuhapé, AR","lat":-26.82116,"lon":-54.95774},{"name":"Formosa, AR","lat":-26.18489,"lon":-58.17313},{"name":"Fontana, AR","lat":-27.42039,"lon":-59.03731},{"name":"Federal, AR","lat":-30.95619,"lon":-58.7797},{"name":"Federación, AR","lat":-30.99114,"lon":-57.91789},{"name":"Esquina, AR","lat":-30.01476,"lon":-59.5289},{"name":"El Soberbio, AR","lat":-27.29662,"lon":-54.19811},{"name":"El Palomar, AR","lat":-34.61771,"lon":-58.60153},{"name":"El Colorado, AR","lat":-26.30896,"lon":-59.37226},{"name":"El Alcázar, AR","lat":-26.71377,"lon":-54.81482},{"name":"Dos de Mayo, AR","lat":-27.01998,"lon":-54.68462},{"name":"Don Torcuato, AR","lat":-34.49459,"lon":-58.62729},{"name":"Dolores, AR","lat":-36.31539,"lon":-57.67546},{"name":"Curuzú Cuatiá, AR","lat":-29.79145,"lon":-58.0499},{"name":"Corrientes, AR","lat":-27.46784,"lon":-58.8344},{"name":"Concordia, AR","lat":-31.39195,"lon":-58.01706},{"name":"Concepción del Uruguay, AR","lat":-32.48463,"lon":-58.23217},{"name":"Concepción de la Sierra, AR","lat":-27.98225,"lon":-55.5208},{"name":"Comandante Fontana, AR","lat":-25.3354,"lon":-59.6825},{"name":"Colonia Aurora, AR","lat":-27.4737,"lon":-54.52416},{"name":"Colón, AR","lat":-32.22312,"lon":-58.14426},{"name":"Colegiales, AR","lat":-34.57365,"lon":-58.44924},{"name":"Clorinda, AR","lat":-25.28627,"lon":-57.72168},{"name":"Chascomús, AR","lat":-35.57681,"lon":-58.01215},{"name":"Chajarí, AR","lat":-30.75482,"lon":-57.98196},{"name":"Cerro Azul, AR","lat":-27.63363,"lon":-55.49746},{"name":"Castelar, AR","lat":-34.65142,"lon":-58.64074},{"name":"Capioví, AR","lat":-26.92936,"lon":-55.05773},{"name":"Candelaria, AR","lat":-27.4617,"lon":-55.7449},{"name":"Campo Viera, AR","lat":-27.33271,"lon":-55.05651},{"name":"Campo Ramón, AR","lat":-27.4549,"lon":-55.02122},{"name":"Campo Grande, AR","lat":-27.2077,"lon":-54.97977},{"name":"Campana, AR","lat":-34.16327,"lon":-58.95919},{"name":"Buenos Aires, AR","lat":-34.61315,"lon":-58.37723},{"name":"Bovril, AR","lat":-31.34358,"lon":-59.44652},{"name":"Boedo, AR","lat":-34.63333,"lon":-58.41667},{"name":"Bernardo de Irigoyen, AR","lat":-26.25543,"lon":-53.64682},{"name":"Berazategui, AR","lat":-34.76531,"lon":-58.21278},{"name":"Bella Vista, AR","lat":-34.5651,"lon":-58.69034},{"name":"Belgrano, AR","lat":-34.5627,"lon":-58.45829},{"name":"Basavilbaso, AR","lat":-32.37213,"lon":-58.87858},{"name":"Barranqueras, AR","lat":-27.48132,"lon":-58.93925},{"name":"Barracas, AR","lat":-34.64966,"lon":-58.38341},{"name":"Balcarce, AR","lat":-37.84638,"lon":-58.25549},{"name":"Azul, AR","lat":-36.77803,"lon":-59.85848},{"name":"Avellaneda, AR","lat":-29.11761,"lon":-59.65834},{"name":"Aristóbulo del Valle, AR","lat":-27.09571,"lon":-54.89344},{"name":"Alvear, AR","lat":-29.09689,"lon":-56.55038},{"name":"Alba Posse, AR","lat":-27.56942,"lon":-54.68383},{"name":"Zapala, AR","lat":-38.90056,"lon":-70.06674},{"name":"Yuto, AR","lat":-23.64281,"lon":-64.47162},{"name":"Yerba Buena, AR","lat":-26.81298,"lon":-65.29543},{"name":"Yacimientos Río Turbio, AR","lat":-51.53642,"lon":-72.33786},{"name":"Villa Regina, AR","lat":-39.09631,"lon":-67.08374},{"name":"Villa Paula de Sarmiento, AR","lat":-31.4933,"lon":-68.53838},{"name":"Villa Ojo de Agua, AR","lat":-29.50281,"lon":-63.69497},{"name":"Villa Nueva, AR","lat":-32.43289,"lon":-63.24811},{"name":"Villa María, AR","lat":-32.40751,"lon":-63.24016},{"name":"Villa La Angostura, AR","lat":-40.76173,"lon":-71.64631},{"name":"Villa Huidobro, AR","lat":-34.83826,"lon":-64.58686},{"name":"Villa General Belgrano, AR","lat":-31.97828,"lon":-64.55627},{"name":"Villa Dolores, AR","lat":-31.94504,"lon":-65.19025},{"name":"Villa de Soto, AR","lat":-30.85524,"lon":-64.98496},{"name":"Villa del Totoral, AR","lat":-30.81667,"lon":-63.71667},{"name":"Villa Constitución, AR","lat":-33.22795,"lon":-60.32994},{"name":"Chañar Ladeado, AR","lat":-33.32522,"lon":-62.03722},{"name":"Villa Carlos Paz, AR","lat":-31.4183,"lon":-64.49008},{"name":"Villa Cañás, AR","lat":-34.00406,"lon":-61.60685},{"name":"Villa Berthet, AR","lat":-27.28567,"lon":-60.41579},{"name":"Villa Ángela, AR","lat":-27.57679,"lon":-60.71114},{"name":"Villa Allende, AR","lat":-31.29368,"lon":-64.2977},{"name":"Viedma, AR","lat":-40.81519,"lon":-63.0004},{"name":"Vicuña Mackenna, AR","lat":-33.91823,"lon":-64.39066},{"name":"Victorica, AR","lat":-36.21654,"lon":-65.43709},{"name":"Victoria, AR","lat":-32.61841,"lon":-60.15478},{"name":"Viale, AR","lat":-31.86819,"lon":-60.00755},{"name":"Vera, AR","lat":-29.45986,"lon":-60.21315},{"name":"Venado Tuerto, AR","lat":-33.74585,"lon":-61.96711},{"name":"Veinticinco de Mayo, AR","lat":-37.77491,"lon":-67.71354},{"name":"Veinticinco de Mayo, AR","lat":-35.43247,"lon":-60.17156},{"name":"Valle Hermoso, AR","lat":-31.11205,"lon":-64.48114},{"name":"Ushuaia, AR","lat":-54.81084,"lon":-68.31591},{"name":"Unquillo, AR","lat":-31.23717,"lon":-64.31176},{"name":"Trevelin, AR","lat":-43.0858,"lon":-71.46386},{"name":"Tres Isletas, AR","lat":-26.34067,"lon":-60.43207},{"name":"Tres Arroyos, AR","lat":-38.37694,"lon":-60.27563},{"name":"Trelew, AR","lat":-43.24895,"lon":-65.30505},{"name":"Trancas, AR","lat":-26.23136,"lon":-65.28093},{"name":"Totoras, AR","lat":-32.58472,"lon":-61.16762},{"name":"Tostado, AR","lat":-29.23269,"lon":-61.76869},{"name":"Tinogasta, AR","lat":-28.06556,"lon":-67.56437},{"name":"Tilisarao, AR","lat":-32.73125,"lon":-65.29138},{"name":"Tilcara, AR","lat":-23.57817,"lon":-65.39516},{"name":"Termas de Río Hondo, AR","lat":-27.49362,"lon":-64.85972},{"name":"Tartagal, AR","lat":-22.51682,"lon":-63.8056},{"name":"Tancacha, AR","lat":-32.23751,"lon":-63.97983},{"name":"Tafí Viejo, AR","lat":-26.7333,"lon":-65.26146},{"name":"Taco Pozo, AR","lat":-25.61557,"lon":-63.26708},{"name":"Suncho Corral, AR","lat":-27.93195,"lon":-63.43021},{"name":"Sunchales, AR","lat":-30.94478,"lon":-61.5597},{"name":"Simoca, AR","lat":-27.2629,"lon":-65.35792},{"name":"Sierra Grande, AR","lat":-41.60546,"lon":-65.35702},{"name":"Senillosa, AR","lat":-39.01412,"lon":-68.43281},{"name":"Sastre, AR","lat":-31.76672,"lon":-61.82872},{"name":"Sarmiento, AR","lat":-45.58687,"lon":-69.06894},{"name":"Santo Tomé, AR","lat":-31.66274,"lon":-60.7653},{"name":"Santiago del Estero, AR","lat":-27.80047,"lon":-64.26285},{"name":"Santa Sylvina, AR","lat":-27.83154,"lon":-61.13601},{"name":"Santa Rosa de Río Primero, AR","lat":-31.15353,"lon":-63.39938},{"name":"Santa Rosa de Calamuchita, AR","lat":-32.06439,"lon":-64.53961},{"name":"Santa Rosa, AR","lat":-36.61617,"lon":-64.28991},{"name":"Santa Lucía, AR","lat":-31.54055,"lon":-68.49794},{"name":"Santa Fe, AR","lat":-31.64881,"lon":-60.70868},{"name":"San Salvador de Jujuy, AR","lat":-24.1928,"lon":-65.29342},{"name":"San Ramón de la Nueva Orán, AR","lat":-23.13705,"lon":-64.32426},{"name":"San Rafael, AR","lat":-34.61531,"lon":-68.33238},{"name":"San Pedro de Jujuy, AR","lat":-24.23127,"lon":-64.86614},{"name":"San Nicolás de los Arroyos, AR","lat":-33.33425,"lon":-60.2108},{"name":"San Miguel de Tucumán, AR","lat":-26.81601,"lon":-65.21051},{"name":"San Martín de los Andes, AR","lat":-40.15789,"lon":-71.35337},{"name":"San Martín, AR","lat":-33.08338,"lon":-68.47312},{"name":"Villa General San Martín, AR","lat":-31.43963,"lon":-68.5205},{"name":"San Luis, AR","lat":-33.2914,"lon":-66.32467},{"name":"San Justo, AR","lat":-30.78991,"lon":-60.59276},{"name":"San Juan, AR","lat":-31.53726,"lon":-68.52568},{"name":"San José de Jáchal, AR","lat":-30.24162,"lon":-68.74662},{"name":"San Jorge, AR","lat":-31.89706,"lon":-61.85993},{"name":"San Francisco, AR","lat":-31.42497,"lon":-62.08404},{"name":"Catamarca, AR","lat":-28.46957,"lon":-65.78524},{"name":"San Cristóbal, AR","lat":-30.31038,"lon":-61.23492},{"name":"San Carlos Centro, AR","lat":-31.72864,"lon":-61.09192},{"name":"San Bernardo, AR","lat":-27.28672,"lon":-60.71293},{"name":"San Benito, AR","lat":-31.78283,"lon":-60.43949},{"name":"San Antonio Oeste, AR","lat":-40.73193,"lon":-64.94769},{"name":"Villa San Agustín, AR","lat":-30.63464,"lon":-67.4679},{"name":"Sampacho, AR","lat":-33.38452,"lon":-64.72274},{"name":"Salta, AR","lat":-24.80645,"lon":-65.41999},{"name":"Salsipuedes, AR","lat":-31.13789,"lon":-64.29277},{"name":"Rufino, AR","lat":-34.26237,"lon":-62.71128},{"name":"Rosario, AR","lat":-32.94682,"lon":-60.63932},{"name":"Roldán, AR","lat":-32.89846,"lon":-60.90681},{"name":"Río Tercero, AR","lat":-32.17675,"lon":-64.11295},{"name":"Río Segundo, AR","lat":-31.6501,"lon":-63.91165},{"name":"Río Primero, AR","lat":-31.3339,"lon":-63.61856},{"name":"Río Grande, AR","lat":-53.78773,"lon":-67.70975},{"name":"Río Gallegos, AR","lat":-51.6253,"lon":-69.25229},{"name":"Río Cuarto, AR","lat":-33.13044,"lon":-64.35272},{"name":"Río Ceballos, AR","lat":-31.1697,"lon":-64.3175},{"name":"Recreo, AR","lat":-31.49076,"lon":-60.73299},{"name":"Recreo, AR","lat":-29.28184,"lon":-65.06096},{"name":"Realicó, AR","lat":-35.03821,"lon":-64.24631},{"name":"Rawson, AR","lat":-43.30031,"lon":-65.10564},{"name":"Rafaela, AR","lat":-31.25285,"lon":-61.49078},{"name":"Rada Tilly, AR","lat":-45.92462,"lon":-67.55424},{"name":"Quitilipi, AR","lat":-26.8708,"lon":-60.21537},{"name":"Quimilí, AR","lat":-27.64615,"lon":-62.41655},{"name":"Punta Alta, AR","lat":-38.8805,"lon":-62.07503},{"name":"Puerto San Julián, AR","lat":-49.30696,"lon":-67.7298},{"name":"Puerto Madryn, AR","lat":-42.76848,"lon":-65.03827},{"name":"Puerto Deseado, AR","lat":-47.75131,"lon":-65.89674},{"name":"Profesor Salvador Mazza, AR","lat":-22.04897,"lon":-63.69075},{"name":"Presidencia Roque Sáenz Peña, AR","lat":-26.79095,"lon":-60.44132},{"name":"Pozo del Molle, AR","lat":-32.02127,"lon":-62.91931},{"name":"Pocito, AR","lat":-31.68333,"lon":-68.58333},{"name":"Plottier, AR","lat":-38.96667,"lon":-68.23333},{"name":"Plaza Huincul, AR","lat":-38.93012,"lon":-69.20778},{"name":"Pilar, AR","lat":-31.68129,"lon":-63.8824},{"name":"Pico Truncado, AR","lat":-46.79942,"lon":-67.95785},{"name":"Pergamino, AR","lat":-33.89101,"lon":-60.57462},{"name":"Pérez, AR","lat":-32.99835,"lon":-60.76791},{"name":"Paraná, AR","lat":-31.73271,"lon":-60.52897},{"name":"Pampa del Infierno, AR","lat":-26.50353,"lon":-61.17654},{"name":"Palpalá, AR","lat":-24.25798,"lon":-65.21358},{"name":"Palma Sola, AR","lat":-23.97771,"lon":-64.30311},{"name":"Oncativo, AR","lat":-31.9134,"lon":-63.68214},{"name":"Oliva, AR","lat":-32.03823,"lon":-63.57063},{"name":"Olavarría, AR","lat":-36.89384,"lon":-60.32319},{"name":"Nueve de Julio, AR","lat":-35.44394,"lon":-60.88463},{"name":"Nueve de Julio, AR","lat":-31.6692,"lon":-68.39013},{"name":"Neuquén, AR","lat":-38.95078,"lon":-68.0592},{"name":"Morteros, AR","lat":-30.71066,"lon":-62.00714},{"name":"Monteros, AR","lat":-27.16825,"lon":-65.49892},{"name":"Monte Maíz, AR","lat":-33.20424,"lon":-62.60052},{"name":"Montecristo, AR","lat":-31.34136,"lon":-63.94535},{"name":"Monte Buey, AR","lat":-32.91649,"lon":-62.4564},{"name":"Mina Clavero, AR","lat":-31.72945,"lon":-65.00501},{"name":"Merlo, AR","lat":-32.34288,"lon":-65.01396},{"name":"Mendoza, AR","lat":-32.88946,"lon":-68.84582},{"name":"Marcos Juárez, AR","lat":-32.6978,"lon":-62.10672},{"name":"Malvinas Argentinas, AR","lat":-31.38194,"lon":-64.05545},{"name":"Malagueño, AR","lat":-31.46737,"lon":-64.35903},{"name":"Machagai, AR","lat":-26.92617,"lon":-60.04852},{"name":"Los Frentones, AR","lat":-26.40706,"lon":-61.41284},{"name":"Los Altos, AR","lat":-28.04501,"lon":-65.49764},{"name":"Lincoln, AR","lat":-34.86819,"lon":-61.52929},{"name":"Libertador General San Martín, AR","lat":-23.81305,"lon":-64.79353},{"name":"Leones, AR","lat":-32.65828,"lon":-62.29773},{"name":"La Toma, AR","lat":-33.05353,"lon":-65.62254},{"name":"Las Varillas, AR","lat":-31.8704,"lon":-62.71968},{"name":"Las Rosas, AR","lat":-32.47547,"lon":-61.57737},{"name":"Las Parejas, AR","lat":-32.68478,"lon":-61.51637},{"name":"Las Lomitas, AR","lat":-24.70818,"lon":-60.59239},{"name":"Las Lajitas, AR","lat":-24.72762,"lon":-64.19335},{"name":"Las Higueras, AR","lat":-33.09386,"lon":-64.28824},{"name":"Las Heras, AR","lat":-46.54131,"lon":-68.93227},{"name":"Las Breñas, AR","lat":-27.08819,"lon":-61.08217},{"name":"La Rioja, AR","lat":-29.41328,"lon":-66.85637},{"name":"La Quiaca, AR","lat":-22.10448,"lon":-65.59646},{"name":"Lamarque, AR","lat":-39.42515,"lon":-65.70215},{"name":"Laguna Paiva, AR","lat":-31.3067,"lon":-60.6606},{"name":"Laguna Larga, AR","lat":-31.77569,"lon":-63.80038},{"name":"La Falda, AR","lat":-31.09321,"lon":-64.48448},{"name":"La Cumbre, AR","lat":-30.98225,"lon":-64.49074},{"name":"La Cocha, AR","lat":-27.76927,"lon":-65.58711},{"name":"La Carlota, AR","lat":-33.42012,"lon":-63.2975},{"name":"La Calera, AR","lat":-31.34582,"lon":-64.33849},{"name":"Laboulaye, AR","lat":-34.12688,"lon":-63.39083},{"name":"Laborde, AR","lat":-33.15481,"lon":-62.85741},{"name":"Justo Daract, AR","lat":-33.86056,"lon":-65.18224},{"name":"Justiniano Posse, AR","lat":-32.88344,"lon":-62.67965},{"name":"Junín de los Andes, AR","lat":-39.94931,"lon":-71.07543},{"name":"Junín, AR","lat":-34.59391,"lon":-60.94644},{"name":"Joaquín V. González, AR","lat":-25.11364,"lon":-64.12628},{"name":"Jesús María, AR","lat":-30.98153,"lon":-64.09424},{"name":"Intendente Alvear, AR","lat":-35.23468,"lon":-63.59209},{"name":"La Esperanza, AR","lat":-24.2247,"lon":-64.83807},{"name":"Ingeniero Luis A. Huergo, AR","lat":-39.07146,"lon":-67.2379},{"name":"Ingeniero Jacobacci, AR","lat":-41.3292,"lon":-69.55015},{"name":"Ingeniero Guillermo N. Juárez, AR","lat":-23.89861,"lon":-61.85502},{"name":"Icaño, AR","lat":-28.91946,"lon":-65.33023},{"name":"Humahuaca, AR","lat":-23.20612,"lon":-65.34742},{"name":"Huinca Renancó, AR","lat":-34.84131,"lon":-64.3746},{"name":"Huillapima, AR","lat":-28.72602,"lon":-65.97879},{"name":"Huerta Grande, AR","lat":-31.0752,"lon":-64.49063},{"name":"Hernando, AR","lat":-32.42785,"lon":-63.7335},{"name":"Hermoso Campo, AR","lat":-27.61005,"lon":-61.34421},{"name":"Guatraché, AR","lat":-37.67073,"lon":-63.53576},{"name":"Graneros, AR","lat":-27.6489,"lon":-65.44004},{"name":"Granadero Baigorria, AR","lat":-32.85683,"lon":-60.71754},{"name":"Gobernador Gálvez, AR","lat":-33.03016,"lon":-60.64045},{"name":"General Villegas, AR","lat":-35.03264,"lon":-63.01484},{"name":"General Roca, AR","lat":-39.03333,"lon":-67.58333},{"name":"General Ramírez, AR","lat":-32.17718,"lon":-60.20172},{"name":"General Pinedo, AR","lat":-27.32534,"lon":-61.28101},{"name":"General Pico, AR","lat":-35.6593,"lon":-63.75787},{"name":"General Levalle, AR","lat":-34.00719,"lon":-63.92334},{"name":"General Fernández Oro, AR","lat":-38.95297,"lon":-67.92489},{"name":"General Mosconi, AR","lat":-22.59617,"lon":-63.811},{"name":"General Conesa, AR","lat":-40.10408,"lon":-64.45592},{"name":"General Cabrera, AR","lat":-32.81048,"lon":-63.87213},{"name":"General Acha, AR","lat":-37.37821,"lon":-64.60422},{"name":"Gálvez, AR","lat":-32.02957,"lon":-61.22097},{"name":"Gaiman, AR","lat":-43.2909,"lon":-65.4977},{"name":"Funes, AR","lat":-32.91568,"lon":-60.80995},{"name":"Fray Luis Beltrán, AR","lat":-39.31369,"lon":-65.76002},{"name":"Fray Luis A. Beltrán, AR","lat":-32.79122,"lon":-60.72819},{"name":"Fraile Pintado, AR","lat":-23.94148,"lon":-64.8009},{"name":"Firmat, AR","lat":-33.45937,"lon":-61.4832},{"name":"Fiambalá, AR","lat":-27.67225,"lon":-67.6187},{"name":"Famaillá, AR","lat":-27.05452,"lon":-65.40189},{"name":"Esquel, AR","lat":-42.91147,"lon":-71.31947},{"name":"Esperanza, AR","lat":-31.44957,"lon":-60.93153},{"name":"Embarcación, AR","lat":-23.21003,"lon":-64.09965},{"name":"Embalse, AR","lat":-32.20681,"lon":-64.40064},{"name":"El Trébol, AR","lat":-32.19857,"lon":-61.70208},{"name":"El Quebrachal, AR","lat":-25.28333,"lon":-64.06667},{"name":"El Galpón, AR","lat":-25.38062,"lon":-64.65162},{"name":"El Carril, AR","lat":-25.07185,"lon":-65.49302},{"name":"El Calafate, AR","lat":-50.34075,"lon":-72.27682},{"name":"El Bolsón, AR","lat":-41.96051,"lon":-71.53336},{"name":"Eduardo Castex, AR","lat":-35.91606,"lon":-64.29558},{"name":"Diamante, AR","lat":-32.0671,"lon":-60.64267},{"name":"Devoto, AR","lat":-31.40167,"lon":-62.30622},{"name":"Despeñaderos, AR","lat":-31.81431,"lon":-64.29491},{"name":"Deán Funes, AR","lat":-30.42498,"lon":-64.35274},{"name":"Cutral-Có, AR","lat":-38.93424,"lon":-69.23052},{"name":"Cruz del Eje, AR","lat":-30.72644,"lon":-64.80387},{"name":"Cruz Alta, AR","lat":-33.00796,"lon":-61.8083},{"name":"Crespo, AR","lat":-32.03077,"lon":-60.30619},{"name":"Cosquín, AR","lat":-31.24525,"lon":-64.46574},{"name":"Corzuela, AR","lat":-26.95135,"lon":-60.97036},{"name":"Corral de Bustos, AR","lat":-33.28377,"lon":-62.18581},{"name":"Coronel Suárez, AR","lat":-37.45859,"lon":-61.93294},{"name":"Coronel Moldes, AR","lat":-33.622,"lon":-64.59702},{"name":"Coronel Du Graty, AR","lat":-27.68216,"lon":-60.90443},{"name":"Coronel Dorrego, AR","lat":-38.71872,"lon":-61.28849},{"name":"Coronda, AR","lat":-31.97365,"lon":-60.91935},{"name":"Córdoba, AR","lat":-31.40648,"lon":-64.18853},{"name":"Concepción del Bermejo, AR","lat":-26.60036,"lon":-60.94624},{"name":"Comodoro Rivadavia, AR","lat":-45.86256,"lon":-67.494},{"name":"Clodomira, AR","lat":-27.5766,"lon":-64.13201},{"name":"Cipolletti, AR","lat":-38.93392,"lon":-67.99032},{"name":"Cinco Saltos, AR","lat":-38.82225,"lon":-68.06293},{"name":"Chos Malal, AR","lat":-37.37809,"lon":-70.27085},{"name":"Choele Choel, AR","lat":-39.28941,"lon":-65.6606},{"name":"Chivilcoy, AR","lat":-34.8969,"lon":-60.01909},{"name":"Chimbas, AR","lat":-31.49313,"lon":-68.53263},{"name":"Chilecito, AR","lat":-29.16163,"lon":-67.49934},{"name":"Chicoana, AR","lat":-25.10502,"lon":-65.53473},{"name":"Charata, AR","lat":-27.21787,"lon":-61.18738},{"name":"Chamical, AR","lat":-30.35942,"lon":-66.31387},{"name":"Chacabuco, AR","lat":-34.64203,"lon":-60.47124},{"name":"Cervantes, AR","lat":-39.05444,"lon":-67.39426},{"name":"Ceres, AR","lat":-29.88113,"lon":-61.94521},{"name":"Centenario, AR","lat":-38.82955,"lon":-68.1318},{"name":"Caucete, AR","lat":-31.6515,"lon":-68.28216},{"name":"Catriel, AR","lat":-37.87552,"lon":-67.79451},{"name":"Juan José Castelli, AR","lat":-25.9466,"lon":-60.62008},{"name":"Casilda, AR","lat":-33.04459,"lon":-61.16423},{"name":"Carmen de Patagones, AR","lat":-40.80255,"lon":-62.98349},{"name":"Carcarañá, AR","lat":-32.85704,"lon":-61.15114},{"name":"Capitán Bermúdez, AR","lat":-32.82262,"lon":-60.71852},{"name":"Capilla del Monte, AR","lat":-30.8607,"lon":-64.52531},{"name":"Capayán, AR","lat":-28.77436,"lon":-66.04749},{"name":"Canals, AR","lat":-33.56224,"lon":-62.88509},{"name":"Cañada de Gómez, AR","lat":-32.82033,"lon":-61.39513},{"name":"Campo Largo, AR","lat":-26.80031,"lon":-60.83903},{"name":"Campo Gallo, AR","lat":-26.58395,"lon":-62.84705},{"name":"Calingasta, AR","lat":-31.33394,"lon":-69.4208},{"name":"Calilegua, AR","lat":-23.77441,"lon":-64.77003},{"name":"Caleta Olivia, AR","lat":-46.44785,"lon":-67.52274},{"name":"Calchaquí, AR","lat":-29.88845,"lon":-60.28397},{"name":"Caimancito, AR","lat":-23.74084,"lon":-64.59316},{"name":"Cafayate, AR","lat":-26.07286,"lon":-65.97766},{"name":"Brinkmann, AR","lat":-30.86651,"lon":-62.04311},{"name":"Berrotarán, AR","lat":-32.44961,"lon":-64.38798},{"name":"Beltrán, AR","lat":-27.82696,"lon":-64.05846},{"name":"Bell Ville, AR","lat":-32.63021,"lon":-62.68883},{"name":"Bella Vista, AR","lat":-27.03424,"lon":-65.30196},{"name":"Balnearia, AR","lat":-31.01285,"lon":-62.66536},{"name":"Bahía Blanca, AR","lat":-38.7176,"lon":-62.26545},{"name":"Avia Terai, AR","lat":-26.68665,"lon":-60.72803},{"name":"Arroyo Seco, AR","lat":-33.15365,"lon":-60.51168},{"name":"Arroyito, AR","lat":-31.41917,"lon":-63.05084},{"name":"Arrecifes, AR","lat":-34.06306,"lon":-60.10261},{"name":"Armstrong, AR","lat":-32.78487,"lon":-61.60321},{"name":"Arias, AR","lat":-33.64037,"lon":-62.40272},{"name":"Arauco, AR","lat":-28.58071,"lon":-66.7925},{"name":"Apolinario Saravia, AR","lat":-24.43232,"lon":-63.9956},{"name":"Andalgalá, AR","lat":-27.58185,"lon":-66.31626},{"name":"Añatuya, AR","lat":-28.4602,"lon":-62.83354},{"name":"Alta Gracia, AR","lat":-31.64978,"lon":-64.42972},{"name":"Almafuerte, AR","lat":-32.19227,"lon":-64.25569},{"name":"Allen, AR","lat":-38.97736,"lon":-67.82714},{"name":"Alderetes, AR","lat":-26.81787,"lon":-65.14202},{"name":"Albardón, AR","lat":-31.43722,"lon":-68.52556},{"name":"Aguilares, AR","lat":-27.4315,"lon":-65.61465},{"name":"Adelia María, AR","lat":-33.63217,"lon":-64.02103},{"name":"Abra Pampa, AR","lat":-22.72273,"lon":-65.69693},{"name":"Balvanera, AR","lat":-34.61032,"lon":-58.39766},{"name":"Villa Santa Rita, AR","lat":-34.61082,"lon":-58.481},{"name":"Villa Mercedes, AR","lat":-33.67571,"lon":-65.45783},{"name":"La Punta, AR","lat":-33.18368,"lon":-66.3127},{"name":"San Miguel, AR","lat":-34.54335,"lon":-58.71229},{"name":"San Carlos de Bariloche, AR","lat":-41.14557,"lon":-71.30822},{"name":"Río Turbio, AR","lat":-51.53587,"lon":-72.33673},{"name":"Adrogué, AR","lat":-34.80041,"lon":-58.38384},{"name":"Ingeniero Pablo Nogués, AR","lat":-34.47775,"lon":-58.70652},{"name":"Villa Sarmiento, AR","lat":-34.63364,"lon":-58.57047},{"name":"José C. Paz, AR","lat":-34.51541,"lon":-58.76813},{"name":"Taulaga, AS","lat":-11.05528,"lon":-171.08833},{"name":"Ta`ū, AS","lat":-14.23361,"lon":-169.51444},{"name":"Tāfuna, AS","lat":-14.33583,"lon":-170.72},{"name":"Pago Pago, AS","lat":-14.27806,"lon":-170.7025},{"name":"Döbling, AT","lat":48.25,"lon":16.33333},{"name":"Neu-Guntramsdorf, AT","lat":48.0642,"lon":16.31573},{"name":"Zirl, AT","lat":47.2741,"lon":11.23961},{"name":"Zell am See, AT","lat":47.32306,"lon":12.79839},{"name":"Wörgl, AT","lat":47.48906,"lon":12.06174},{"name":"Wolfurt, AT","lat":47.46667,"lon":9.75},{"name":"Wölfnitz, AT","lat":46.66639,"lon":14.25806},{"name":"Wimpassing, AT","lat":48.16667,"lon":13.98333},{"name":"Wilten, AT","lat":47.25829,"lon":11.38808},{"name":"Wilhelmsburg, AT","lat":48.10571,"lon":15.60539},{"name":"Wiener Neustadt, AT","lat":47.80485,"lon":16.23196},{"name":"Wiener Neudorf, AT","lat":48.08278,"lon":16.31384},{"name":"Vienna, AT","lat":48.20849,"lon":16.37208},{"name":"Wetzelsdorf, AT","lat":47.05293,"lon":15.39923},{"name":"Wels, AT","lat":48.16667,"lon":14.03333},{"name":"Weiz, AT","lat":47.21667,"lon":15.61667},{"name":"Wattens, AT","lat":47.29419,"lon":11.5907},{"name":"Waltendorf, AT","lat":47.06667,"lon":15.46667},{"name":"Vösendorf, AT","lat":48.12107,"lon":16.34036},{"name":"Vorchdorf, AT","lat":48.00388,"lon":13.92122},{"name":"Völs, AT","lat":47.25,"lon":11.33333},{"name":"Völkendorf, AT","lat":46.60806,"lon":13.83153},{"name":"Voitsberg, AT","lat":47.04445,"lon":15.15313},{"name":"Villach, AT","lat":46.61028,"lon":13.85583},{"name":"Viktring, AT","lat":46.59194,"lon":14.26917},{"name":"Tulln, AT","lat":48.32829,"lon":16.05858},{"name":"Trofaiach, AT","lat":47.42524,"lon":15.00681},{"name":"Traun, AT","lat":48.22086,"lon":14.23833},{"name":"Traiskirchen, AT","lat":48.01485,"lon":16.29324},{"name":"Ternitz, AT","lat":47.71565,"lon":16.03575},{"name":"Telfs, AT","lat":47.30707,"lon":11.06817},{"name":"Strasshof an der Nordbahn, AT","lat":48.31667,"lon":16.66667},{"name":"Straßgang, AT","lat":47.03333,"lon":15.4},{"name":"Stockerau, AT","lat":48.38333,"lon":16.21667},{"name":"Steyr, AT","lat":48.04274,"lon":14.42127},{"name":"Spratzern, AT","lat":48.17044,"lon":15.61844},{"name":"Spittal an der Drau, AT","lat":46.8,"lon":13.5},{"name":"Sollenau, AT","lat":47.89834,"lon":16.24833},{"name":"Hall in Tirol, AT","lat":47.28333,"lon":11.51667},{"name":"Simmering, AT","lat":48.18333,"lon":16.43333},{"name":"Seiersberg, AT","lat":47,"lon":15.4},{"name":"Schwechat, AT","lat":48.13333,"lon":16.46667},{"name":"Schwaz, AT","lat":47.35169,"lon":11.71014},{"name":"Sankt Veit an der Glan, AT","lat":46.76806,"lon":14.36028},{"name":"Sankt Valentin, AT","lat":48.16667,"lon":14.51667},{"name":"Sankt Ruprecht, AT","lat":46.6,"lon":14.31667},{"name":"Sankt Pölten, AT","lat":48.2,"lon":15.63333},{"name":"Sankt Peter, AT","lat":47.05,"lon":15.46667},{"name":"Sankt Peter, AT","lat":46.62978,"lon":14.34016},{"name":"Sankt Martin, AT","lat":46.61667,"lon":14.28333},{"name":"Sankt Martin, AT","lat":48.23091,"lon":14.26781},{"name":"Sankt Johann in Tirol, AT","lat":47.5233,"lon":12.4232},{"name":"Salzburg, AT","lat":47.79941,"lon":13.04399},{"name":"Saalfelden am Steinernen Meer, AT","lat":47.42681,"lon":12.848},{"name":"Rum, AT","lat":47.28333,"lon":11.45},{"name":"Ries, AT","lat":47.08315,"lon":15.485},{"name":"Ried im Innkreis, AT","lat":48.21123,"lon":13.48855},{"name":"Reutte, AT","lat":47.48333,"lon":10.71667},{"name":"Rankweil, AT","lat":47.27108,"lon":9.64308},{"name":"Purkersdorf, AT","lat":48.20769,"lon":16.17539},{"name":"Puntigam, AT","lat":47.03333,"lon":15.43333},{"name":"Pressbaum, AT","lat":48.18333,"lon":16.08333},{"name":"Pradl, AT","lat":47.26539,"lon":11.4152},{"name":"Pöllau, AT","lat":47.3,"lon":15.83333},{"name":"Pinkafeld, AT","lat":47.3709,"lon":16.1241},{"name":"Perg, AT","lat":48.25,"lon":14.63333},{"name":"Perchtoldsdorf, AT","lat":48.11935,"lon":16.26607},{"name":"Ottakring, AT","lat":48.21667,"lon":16.3},{"name":"Oberwart, AT","lat":47.28971,"lon":16.20595},{"name":"Oberndorf bei Salzburg, AT","lat":47.95,"lon":12.93333},{"name":"Neuzeug, AT","lat":48.05,"lon":14.33333},{"name":"Neusiedl am See, AT","lat":47.94901,"lon":16.8417},{"name":"Neunkirchen, AT","lat":47.72096,"lon":16.08107},{"name":"Neuhofen an der Krems, AT","lat":48.13866,"lon":14.22764},{"name":"Mürzzuschlag, AT","lat":47.6066,"lon":15.67226},{"name":"Mühlau, AT","lat":47.28333,"lon":11.4},{"name":"Mödling, AT","lat":48.08605,"lon":16.28921},{"name":"Mistelbach, AT","lat":48.57,"lon":16.57667},{"name":"Micheldorf in Oberösterreich, AT","lat":47.87764,"lon":14.13357},{"name":"Meidling, AT","lat":48.16667,"lon":16.33333},{"name":"Mattighofen, AT","lat":48.10732,"lon":13.15081},{"name":"Mattersburg, AT","lat":47.73333,"lon":16.4},{"name":"Mariatrost, AT","lat":47.09641,"lon":15.46537},{"name":"Maria Enzersdorf, AT","lat":48.1,"lon":16.28333},{"name":"Marchtrenk, AT","lat":48.19022,"lon":14.10908},{"name":"Lustenau, AT","lat":47.42642,"lon":9.65851},{"name":"Lochau, AT","lat":47.53333,"lon":9.75},{"name":"Linz, AT","lat":48.30639,"lon":14.28611},{"name":"Liezen, AT","lat":47.56667,"lon":14.23333},{"name":"Lienz, AT","lat":46.8289,"lon":12.76903},{"name":"Liebenau, AT","lat":47.03333,"lon":15.46667},{"name":"Lichtenegg, AT","lat":48.15,"lon":14},{"name":"Leopoldsdorf, AT","lat":48.11557,"lon":16.39126},{"name":"Leoben, AT","lat":47.3765,"lon":15.09144},{"name":"Leibnitz, AT","lat":46.78161,"lon":15.53836},{"name":"Lauterach, AT","lat":47.47572,"lon":9.72941},{"name":"Langenzersdorf, AT","lat":48.30432,"lon":16.36143},{"name":"Landeck, AT","lat":47.13988,"lon":10.56593},{"name":"Laakirchen, AT","lat":47.98188,"lon":13.82166},{"name":"Kufstein, AT","lat":47.58333,"lon":12.16667},{"name":"Kremsmünster, AT","lat":48.0529,"lon":14.12919},{"name":"Krems an der Donau, AT","lat":48.40921,"lon":15.61415},{"name":"Kottingbrunn, AT","lat":47.95096,"lon":16.22715},{"name":"Korneuburg, AT","lat":48.35,"lon":16.33333},{"name":"Knittelfeld, AT","lat":47.21667,"lon":14.81667},{"name":"Klosterneuburg, AT","lat":48.30521,"lon":16.32522},{"name":"Klagenfurt am Wörthersee, AT","lat":46.62472,"lon":14.30528},{"name":"Kitzbühel, AT","lat":47.44637,"lon":12.39215},{"name":"Kirchberg in Tirol, AT","lat":47.44539,"lon":12.31602},{"name":"Kindberg, AT","lat":47.5,"lon":15.45},{"name":"Kalsdorf bei Graz, AT","lat":46.96528,"lon":15.48028},{"name":"Judendorf, AT","lat":47.4,"lon":15.1},{"name":"Judenburg, AT","lat":47.16667,"lon":14.66667},{"name":"Jenbach, AT","lat":47.39173,"lon":11.77245},{"name":"Innsbruck, AT","lat":47.26266,"lon":11.39454},{"name":"Innere Stadt, AT","lat":48.20906,"lon":16.37135},{"name":"Imst, AT","lat":47.24504,"lon":10.73974},{"name":"Penzing, AT","lat":48.2,"lon":16.26667},{"name":"Hötting, AT","lat":47.26815,"lon":11.36868},{"name":"Horn, AT","lat":48.66274,"lon":15.65663},{"name":"Hörbranz, AT","lat":47.55,"lon":9.75},{"name":"Hollabrunn, AT","lat":48.55,"lon":16.08333},{"name":"Hohenems, AT","lat":47.36121,"lon":9.68694},{"name":"Höchst, AT","lat":47.45934,"lon":9.6405},{"name":"Himberg, AT","lat":48.08333,"lon":16.43333},{"name":"Hietzing, AT","lat":48.18623,"lon":16.2965},{"name":"Hernals, AT","lat":48.23333,"lon":16.26667},{"name":"Hart, AT","lat":48.26526,"lon":14.25691},{"name":"Hard, AT","lat":47.48306,"lon":9.68306},{"name":"Hallein, AT","lat":47.68333,"lon":13.1},{"name":"Hainburg an der Donau, AT","lat":48.14627,"lon":16.94504},{"name":"Haid, AT","lat":48.20477,"lon":14.25107},{"name":"Hafendorf, AT","lat":47.45653,"lon":15.31837},{"name":"Haag, AT","lat":48.27063,"lon":14.26875},{"name":"Guntramsdorf, AT","lat":48.04687,"lon":16.31384},{"name":"Groß-Enzersdorf, AT","lat":48.20278,"lon":16.55083},{"name":"Graz, AT","lat":47.06667,"lon":15.45},{"name":"Gratkorn, AT","lat":47.13333,"lon":15.35},{"name":"Götzis, AT","lat":47.33306,"lon":9.63306},{"name":"Gösting, AT","lat":47.09788,"lon":15.39777},{"name":"Gmunden, AT","lat":47.91839,"lon":13.79933},{"name":"Gleisdorf, AT","lat":47.10559,"lon":15.71011},{"name":"Gerasdorf bei Wien, AT","lat":48.29447,"lon":16.46765},{"name":"Gänserndorf, AT","lat":48.33925,"lon":16.72016},{"name":"Gallneukirchen, AT","lat":48.35363,"lon":14.41604},{"name":"Fürstenfeld, AT","lat":47.05,"lon":16.08333},{"name":"Fünfhaus, AT","lat":48.19596,"lon":16.3183},{"name":"Freistadt, AT","lat":48.51103,"lon":14.50453},{"name":"Floridsdorf, AT","lat":48.25,"lon":16.4},{"name":"Fischamend, AT","lat":48.11556,"lon":16.61278},{"name":"Feldkirch, AT","lat":47.23306,"lon":9.6},{"name":"Essling, AT","lat":48.21289,"lon":16.52442},{"name":"Enns, AT","lat":48.21346,"lon":14.47612},{"name":"Eisenstadt, AT","lat":47.84565,"lon":16.52327},{"name":"Eggenberg, AT","lat":47.07,"lon":15.39871},{"name":"Ebreichsdorf, AT","lat":47.95579,"lon":16.40705},{"name":"Dornbirn, AT","lat":47.41427,"lon":9.74195},{"name":"Deutschlandsberg, AT","lat":46.81528,"lon":15.22222},{"name":"Deuchendorf, AT","lat":47.46593,"lon":15.32172},{"name":"Brunn am Gebirge, AT","lat":48.10697,"lon":16.28466},{"name":"Bruck an der Mur, AT","lat":47.41667,"lon":15.28333},{"name":"Bruck an der Leitha, AT","lat":48.0242,"lon":16.7757},{"name":"Breitenfurt bei Wien, AT","lat":48.13333,"lon":16.15},{"name":"Bregenz, AT","lat":47.50311,"lon":9.7471},{"name":"Bludenz, AT","lat":47.15476,"lon":9.82255},{"name":"Bischofshofen, AT","lat":47.41667,"lon":13.21667},{"name":"Berndorf, AT","lat":47.94567,"lon":16.10973},{"name":"Bad Vöslau, AT","lat":47.96533,"lon":16.21359},{"name":"Bad Hall, AT","lat":48.03832,"lon":14.20773},{"name":"Baden, AT","lat":48.00543,"lon":16.23264},{"name":"Axams, AT","lat":47.23111,"lon":11.27892},{"name":"Aspern, AT","lat":48.21806,"lon":16.48306},{"name":"Arzl, AT","lat":47.28333,"lon":11.43333},{"name":"Annabichl, AT","lat":46.65,"lon":14.31667},{"name":"Amstetten, AT","lat":48.1229,"lon":14.87206},{"name":"Amras, AT","lat":47.25,"lon":11.41667},{"name":"Altach, AT","lat":47.35438,"lon":9.65207},{"name":"Absam, AT","lat":47.29572,"lon":11.50593},{"name":"Finkenstein am Faaker See, AT","lat":46.56081,"lon":13.87115},{"name":"Attnang-Puchheim, AT","lat":48.00833,"lon":13.71667},{"name":"Auen, AT","lat":46.59963,"lon":13.84389},{"name":"Favoriten, AT","lat":48.16116,"lon":16.38233},{"name":"Frastanz, AT","lat":47.21735,"lon":9.62995},{"name":"Kirchbichl, AT","lat":47.51743,"lon":12.09629},{"name":"Kirchenviertel, AT","lat":47.13124,"lon":15.34764},{"name":"Oberhaid, AT","lat":48.17593,"lon":14.01495},{"name":"Villacher Vorstadt, AT","lat":46.62368,"lon":14.28892},{"name":"Lind, AT","lat":46.62244,"lon":13.84715},{"name":"Villach-Innere Stadt, AT","lat":46.61275,"lon":13.84638},{"name":"Donaustadt, AT","lat":48.2333,"lon":16.46002},{"name":"Jakomini, AT","lat":47.05441,"lon":15.44984},{"name":"Lend, AT","lat":47.08256,"lon":15.41589},{"name":"Geidorf, AT","lat":47.08393,"lon":15.444},{"name":"Sankt Leonhard, AT","lat":47.06924,"lon":15.45784},{"name":"Andritz, AT","lat":47.11387,"lon":15.42348},{"name":"Gries, AT","lat":47.06236,"lon":15.42421},{"name":"Währing, AT","lat":48.22611,"lon":16.34484},{"name":"Landstraße, AT","lat":48.2019,"lon":16.38792},{"name":"Margareten, AT","lat":48.1855,"lon":16.35373},{"name":"Mariahilf, AT","lat":48.19571,"lon":16.35215},{"name":"Neubau, AT","lat":48.20172,"lon":16.34715},{"name":"Josefstadt, AT","lat":48.21243,"lon":16.34549},{"name":"Alsergrund, AT","lat":48.22321,"lon":16.35506},{"name":"Brigittenau, AT","lat":48.24275,"lon":16.37551},{"name":"Yanchep, AU","lat":-31.54678,"lon":115.63171},{"name":"Wembley, AU","lat":-31.93308,"lon":115.81783},{"name":"Wellard, AU","lat":-32.26667,"lon":115.83333},{"name":"Wanneroo, AU","lat":-31.75,"lon":115.8},{"name":"Swan View, AU","lat":-31.88333,"lon":116.05},{"name":"Subiaco, AU","lat":-31.9485,"lon":115.8268},{"name":"Strathalbyn, AU","lat":-35.25979,"lon":138.89247},{"name":"Spearwood, AU","lat":-32.10534,"lon":115.77797},{"name":"South Perth, AU","lat":-31.98333,"lon":115.86667},{"name":"Seaton, AU","lat":-34.9,"lon":138.51667},{"name":"Scarborough, AU","lat":-31.89578,"lon":115.76431},{"name":"Salisbury, AU","lat":-34.76667,"lon":138.63333},{"name":"Safety Bay, AU","lat":-32.30463,"lon":115.74213},{"name":"Roleystone, AU","lat":-32.11458,"lon":116.0706},{"name":"Rockingham, AU","lat":-32.27682,"lon":115.72978},{"name":"Prospect, AU","lat":-34.88241,"lon":138.5933},{"name":"Port Pirie, AU","lat":-33.19176,"lon":138.01746},{"name":"Port Lincoln, AU","lat":-34.72625,"lon":135.87442},{"name":"Port Hedland, AU","lat":-20.31215,"lon":118.61059},{"name":"Port Augusta, AU","lat":-32.49597,"lon":137.77281},{"name":"Perth, AU","lat":-31.95224,"lon":115.8614},{"name":"Nuriootpa, AU","lat":-34.46825,"lon":138.99767},{"name":"Northam, AU","lat":-31.64932,"lon":116.67423},{"name":"Newman, AU","lat":-23.35644,"lon":119.73553},{"name":"Nedlands, AU","lat":-31.98184,"lon":115.8073},{"name":"Murray Bridge, AU","lat":-35.11986,"lon":139.27345},{"name":"Mount Isa, AU","lat":-20.72523,"lon":139.49727},{"name":"Mount Barker, AU","lat":-35.06667,"lon":138.86667},{"name":"Mosman Park, AU","lat":-32.00538,"lon":115.7638},{"name":"Morphett Vale, AU","lat":-35.13333,"lon":138.51667},{"name":"Modbury, AU","lat":-34.83333,"lon":138.68333},{"name":"Midland, AU","lat":-31.88909,"lon":116.0107},{"name":"Maylands, AU","lat":-31.93097,"lon":115.89486},{"name":"Margaret River, AU","lat":-33.95504,"lon":115.07599},{"name":"Mandurah, AU","lat":-32.5269,"lon":115.7217},{"name":"Maddington, AU","lat":-32.05,"lon":115.98333},{"name":"Kwinana, AU","lat":-32.23013,"lon":115.78128},{"name":"Kununurra, AU","lat":-15.77825,"lon":128.74208},{"name":"Kenwick, AU","lat":-32.03333,"lon":115.96667},{"name":"Kelmscott, AU","lat":-32.12434,"lon":116.0259},{"name":"Ingle Farm, AU","lat":-34.83333,"lon":138.63333},{"name":"Hope Valley, AU","lat":-34.83333,"lon":138.7},{"name":"Happy Valley, AU","lat":-35.08333,"lon":138.53333},{"name":"Grange, AU","lat":-34.90223,"lon":138.49022},{"name":"Gosnells, AU","lat":-32.081,"lon":116.0054},{"name":"Golden Grove, AU","lat":-34.78333,"lon":138.73333},{"name":"Geraldton, AU","lat":-28.77897,"lon":114.61459},{"name":"Gawler, AU","lat":-34.60251,"lon":138.74902},{"name":"Fremantle, AU","lat":-32.05632,"lon":115.74557},{"name":"Findon, AU","lat":-34.9,"lon":138.53333},{"name":"Darwin, AU","lat":-12.46113,"lon":130.84185},{"name":"Cottesloe, AU","lat":-31.99426,"lon":115.75816},{"name":"Collie, AU","lat":-33.36206,"lon":116.15617},{"name":"Caversham, AU","lat":-31.88333,"lon":115.96667},{"name":"Carnarvon, AU","lat":-24.88258,"lon":113.65713},{"name":"Cannington, AU","lat":-32.01625,"lon":115.93648},{"name":"Campbelltown, AU","lat":-34.88333,"lon":138.66667},{"name":"Byford, AU","lat":-32.22099,"lon":116.009},{"name":"Busselton, AU","lat":-33.65249,"lon":115.3455},{"name":"Bunbury, AU","lat":-33.32711,"lon":115.64137},{"name":"Bullsbrook, AU","lat":-31.66905,"lon":115.9999},{"name":"Broome, AU","lat":-17.95538,"lon":122.23922},{"name":"Bentley, AU","lat":-32.00224,"lon":115.92473},{"name":"Bassendean, AU","lat":-31.90906,"lon":115.9437},{"name":"Australind, AU","lat":-33.2792,"lon":115.71504},{"name":"Armadale, AU","lat":-32.14607,"lon":116.0093},{"name":"Applecross, AU","lat":-32.01667,"lon":115.83333},{"name":"Alice Springs, AU","lat":-23.69748,"lon":133.88362},{"name":"Albany, AU","lat":-35.02692,"lon":117.88369},{"name":"Adelaide, AU","lat":-34.92866,"lon":138.59863},{"name":"Eaton, AU","lat":-33.31664,"lon":115.70503},{"name":"Quinns Rocks, AU","lat":-31.67379,"lon":115.70372},{"name":"East Fremantle, AU","lat":-32.03823,"lon":115.7676},{"name":"Claremont, AU","lat":-31.97961,"lon":115.7823},{"name":"Bicton, AU","lat":-32.02778,"lon":115.78333},{"name":"Attadale, AU","lat":-32.02489,"lon":115.802},{"name":"Warnbro, AU","lat":-32.34017,"lon":115.7473},{"name":"Mullaloo, AU","lat":-31.77896,"lon":115.73676},{"name":"Young, AU","lat":-34.3135,"lon":148.30107},{"name":"Yeppoon, AU","lat":-23.12683,"lon":150.74406},{"name":"Yass, AU","lat":-34.84036,"lon":148.90987},{"name":"Yarrawonga, AU","lat":-36.01923,"lon":145.99973},{"name":"Yarraville, AU","lat":-37.81667,"lon":144.9},{"name":"Yamba, AU","lat":-29.4375,"lon":153.35914},{"name":"Wynyard, AU","lat":-40.9897,"lon":145.72617},{"name":"Wynnum, AU","lat":-27.44527,"lon":153.15813},{"name":"Woy Woy, AU","lat":-33.48433,"lon":151.32471},{"name":"Worongary, AU","lat":-28.05,"lon":153.35},{"name":"Woree, AU","lat":-16.95,"lon":145.75},{"name":"Woonona, AU","lat":-34.34932,"lon":150.91443},{"name":"Woolgoolga, AU","lat":-30.11058,"lon":153.20067},{"name":"Woodridge, AU","lat":-27.63333,"lon":153.1},{"name":"Woodend, AU","lat":-37.35469,"lon":144.52902},{"name":"Wollert, AU","lat":-37.58333,"lon":145.03333},{"name":"Wodonga, AU","lat":-36.12179,"lon":146.88809},{"name":"Wingham, AU","lat":-31.86676,"lon":152.36989},{"name":"Windsor, AU","lat":-37.85344,"lon":144.99241},{"name":"Williamstown, AU","lat":-37.86349,"lon":144.899},{"name":"Whittlesea, AU","lat":-37.51152,"lon":145.11836},{"name":"Wheelers Hill, AU","lat":-37.9,"lon":145.18333},{"name":"West Tamworth, AU","lat":-31.10236,"lon":150.91447},{"name":"West Pymble, AU","lat":-33.76667,"lon":151.13333},{"name":"Westmead, AU","lat":-33.80383,"lon":150.98768},{"name":"West Hoxton, AU","lat":-33.93388,"lon":150.83234},{"name":"Werribee, AU","lat":-37.9,"lon":144.66667},{"name":"Wentworthville, AU","lat":-33.80652,"lon":150.96785},{"name":"Wentworth Falls, AU","lat":-33.71033,"lon":150.37534},{"name":"Wendouree, AU","lat":-37.53078,"lon":143.82838},{"name":"Wellington Point, AU","lat":-27.48333,"lon":153.25},{"name":"Waurn Ponds, AU","lat":-38.21667,"lon":144.28333},{"name":"Wauchope, AU","lat":-31.45792,"lon":152.72617},{"name":"Watsonia, AU","lat":-37.71667,"lon":145.08333},{"name":"Warwick, AU","lat":-28.21901,"lon":152.03438},{"name":"Warrnambool, AU","lat":-38.38176,"lon":142.48799},{"name":"Warrandyte, AU","lat":-37.75,"lon":145.23333},{"name":"Warragul, AU","lat":-38.15912,"lon":145.93118},{"name":"Wantirna South, AU","lat":-37.88333,"lon":145.21667},{"name":"Wantirna, AU","lat":-37.85,"lon":145.21667},{"name":"Wangaratta, AU","lat":-36.35846,"lon":146.32056},{"name":"Wamberal, AU","lat":-33.41554,"lon":151.44559},{"name":"Wallsend, AU","lat":-32.90133,"lon":151.66432},{"name":"Wallan, AU","lat":-37.41625,"lon":144.97859},{"name":"Waitara, AU","lat":-33.71092,"lon":151.1033},{"name":"Wahroonga, AU","lat":-33.71816,"lon":151.11561},{"name":"Wagga Wagga, AU","lat":-35.12577,"lon":147.35375},{"name":"Villawood, AU","lat":-33.88434,"lon":150.98027},{"name":"Victoria Point, AU","lat":-27.58329,"lon":153.31172},{"name":"Vermont, AU","lat":-37.83616,"lon":145.19428},{"name":"Vaucluse, AU","lat":-33.85549,"lon":151.27754},{"name":"Urraween, AU","lat":-25.29522,"lon":152.82206},{"name":"Urangan, AU","lat":-25.29214,"lon":152.90535},{"name":"Upwey, AU","lat":-37.9,"lon":145.33333},{"name":"Upper Coomera, AU","lat":-27.87683,"lon":153.28572},{"name":"Unanderra, AU","lat":-34.45306,"lon":150.84746},{"name":"Ulverstone, AU","lat":-41.16026,"lon":146.18242},{"name":"Ulladulla, AU","lat":-35.35906,"lon":150.47247},{"name":"Tweed Heads, AU","lat":-28.17671,"lon":153.5452},{"name":"Turramurra, AU","lat":-33.73342,"lon":151.12849},{"name":"Tuncurry, AU","lat":-32.17443,"lon":152.49876},{"name":"Tumut, AU","lat":-35.30642,"lon":148.21818},{"name":"Tullamarine, AU","lat":-37.70128,"lon":144.881},{"name":"Tugun, AU","lat":-28.15,"lon":153.5},{"name":"Tuggeranong Administrative District, AU","lat":-35.41647,"lon":149.06954},{"name":"Truganina, AU","lat":-37.81667,"lon":144.75},{"name":"Trinity Beach, AU","lat":-16.78876,"lon":145.69682},{"name":"Traralgon, AU","lat":-38.19528,"lon":146.5415},{"name":"Townsville, AU","lat":-19.26639,"lon":146.80569},{"name":"Torquay, AU","lat":-38.33085,"lon":144.32638},{"name":"Torquay, AU","lat":-25.28496,"lon":152.87886},{"name":"Toowoomba, AU","lat":-27.56056,"lon":151.95386},{"name":"Toowong, AU","lat":-27.48333,"lon":152.98333},{"name":"Toorak, AU","lat":-37.84165,"lon":145.01438},{"name":"Toongabbie West, AU","lat":-33.78333,"lon":150.93333},{"name":"Toongabbie, AU","lat":-33.78333,"lon":150.95},{"name":"Thornton, AU","lat":-32.78333,"lon":151.63333},{"name":"Thornleigh, AU","lat":-33.73228,"lon":151.07895},{"name":"Thornlands, AU","lat":-27.55751,"lon":153.26481},{"name":"Thornbury, AU","lat":-37.75819,"lon":145.00583},{"name":"Thomastown, AU","lat":-37.68333,"lon":145.01667},{"name":"Thirroul, AU","lat":-34.31604,"lon":150.92142},{"name":"Tewantin, AU","lat":-26.39104,"lon":153.03432},{"name":"Terrigal, AU","lat":-33.44815,"lon":151.44665},{"name":"Templestowe Lower, AU","lat":-37.76667,"lon":145.11667},{"name":"Templestowe, AU","lat":-37.75405,"lon":145.14864},{"name":"Tarragindi, AU","lat":-27.52713,"lon":153.04556},{"name":"Tarneit, AU","lat":-37.83634,"lon":144.65952},{"name":"Taree, AU","lat":-31.91099,"lon":152.45387},{"name":"Tamworth, AU","lat":-31.09048,"lon":150.92905},{"name":"Tahmoor, AU","lat":-34.22246,"lon":150.59467},{"name":"Sydney, AU","lat":-33.86785,"lon":151.20732},{"name":"Sydenham, AU","lat":-37.7,"lon":144.76667},{"name":"Swan Hill, AU","lat":-35.33781,"lon":143.5544},{"name":"Sutherland, AU","lat":-34.031,"lon":151.05532},{"name":"Surry Hills, AU","lat":-33.88374,"lon":151.21282},{"name":"Surrey Hills, AU","lat":-37.81667,"lon":145.1},{"name":"Surfers Paradise, AU","lat":-28.00274,"lon":153.42999},{"name":"Sunshine, AU","lat":-37.78333,"lon":144.83333},{"name":"Sunnybank, AU","lat":-27.58003,"lon":153.06064},{"name":"Sunbury, AU","lat":-37.57742,"lon":144.72607},{"name":"Strathpine, AU","lat":-27.30414,"lon":152.98977},{"name":"Strathfieldsaye, AU","lat":-36.80667,"lon":144.35487},{"name":"Strathfield, AU","lat":-33.88096,"lon":151.07986},{"name":"Stawell, AU","lat":-37.05632,"lon":142.78088},{"name":"Stanthorpe, AU","lat":-28.65425,"lon":151.93388},{"name":"Stanmore, AU","lat":-33.89407,"lon":151.16424},{"name":"Springwood, AU","lat":-33.7,"lon":150.55},{"name":"Springvale South, AU","lat":-37.96667,"lon":145.15},{"name":"Springvale, AU","lat":-37.94853,"lon":145.15274},{"name":"Spring Hill, AU","lat":-27.46141,"lon":153.02311},{"name":"South Yarra, AU","lat":-37.83834,"lon":144.99149},{"name":"Southport, AU","lat":-27.96724,"lon":153.39796},{"name":"South Melbourne, AU","lat":-37.83333,"lon":144.96667},{"name":"South Grafton, AU","lat":-29.7076,"lon":152.92627},{"name":"Somerville, AU","lat":-38.21667,"lon":145.16667},{"name":"Smithfield, AU","lat":-33.85,"lon":150.93333},{"name":"Slacks Creek, AU","lat":-27.65,"lon":153.15},{"name":"Singleton, AU","lat":-32.56742,"lon":151.16603},{"name":"Shepparton, AU","lat":-36.38047,"lon":145.39867},{"name":"Seymour, AU","lat":-37.02655,"lon":145.13924},{"name":"Seven Hills, AU","lat":-33.78333,"lon":150.93333},{"name":"Sebastopol, AU","lat":-37.58532,"lon":143.83953},{"name":"Seaford, AU","lat":-38.1,"lon":145.13333},{"name":"Scoresby, AU","lat":-37.9,"lon":145.23333},{"name":"Scone, AU","lat":-32.05014,"lon":150.86893},{"name":"Sarina, AU","lat":-21.4191,"lon":149.21677},{"name":"Sandringham, AU","lat":-37.95218,"lon":145.01129},{"name":"Sale, AU","lat":-38.11095,"lon":147.06802},{"name":"Saint Kilda, AU","lat":-37.8676,"lon":144.98099},{"name":"Saint Ives, AU","lat":-33.72976,"lon":151.15977},{"name":"Saint Albans, AU","lat":-37.73333,"lon":144.8},{"name":"Rye, AU","lat":-38.38528,"lon":144.81221},{"name":"Ryde, AU","lat":-33.8188,"lon":151.1062},{"name":"Rydalmere, AU","lat":-33.81453,"lon":151.03751},{"name":"Rutherford, AU","lat":-32.71667,"lon":151.53333},{"name":"Rowville, AU","lat":-37.93333,"lon":145.23333},{"name":"Roseville, AU","lat":-33.78333,"lon":151.18333},{"name":"Rosebud, AU","lat":-38.35542,"lon":144.9068},{"name":"Rosanna, AU","lat":-37.73895,"lon":145.06735},{"name":"Rooty Hill, AU","lat":-33.76667,"lon":150.83333},{"name":"Roma, AU","lat":-26.56741,"lon":148.78751},{"name":"Rockhampton, AU","lat":-23.38032,"lon":150.50595},{"name":"Rockdale, AU","lat":-33.95,"lon":151.13333},{"name":"Riverstone, AU","lat":-33.68333,"lon":150.86667},{"name":"Ringwood North, AU","lat":-37.8,"lon":145.23333},{"name":"Ringwood East, AU","lat":-37.81667,"lon":145.25},{"name":"Ringwood, AU","lat":-37.81667,"lon":145.23333},{"name":"Richmond, AU","lat":-37.81819,"lon":145.00176},{"name":"Richmond, AU","lat":-33.59956,"lon":150.75142},{"name":"Rhodes, AU","lat":-33.82663,"lon":151.0881},{"name":"Revesby, AU","lat":-33.95,"lon":151.01667},{"name":"Reservoir, AU","lat":-37.71667,"lon":145},{"name":"Redlynch, AU","lat":-16.9254,"lon":145.69559},{"name":"Redland Bay, AU","lat":-27.6113,"lon":153.30022},{"name":"Red Hill, AU","lat":-20.31667,"lon":148.5},{"name":"Redfern, AU","lat":-33.89279,"lon":151.20415},{"name":"Red Cliffs, AU","lat":-34.30942,"lon":142.18971},{"name":"Raymond Terrace, AU","lat":-32.75952,"lon":151.7505},{"name":"Queanbeyan, AU","lat":-35.35493,"lon":149.232},{"name":"Quakers Hill, AU","lat":-33.73333,"lon":150.88333},{"name":"Pyrmont, AU","lat":-33.86985,"lon":151.19402},{"name":"Pymble, AU","lat":-33.74386,"lon":151.14188},{"name":"Preston, AU","lat":-37.75,"lon":145.01667},{"name":"Prahran, AU","lat":-37.85114,"lon":144.99318},{"name":"Potts Point, AU","lat":-33.86701,"lon":151.22586},{"name":"Port Melbourne, AU","lat":-37.83961,"lon":144.94228},{"name":"Port Macquarie, AU","lat":-31.43084,"lon":152.90894},{"name":"Portland, AU","lat":-38.3462,"lon":141.60257},{"name":"Port Kembla, AU","lat":-34.4818,"lon":150.9012},{"name":"Port Douglas, AU","lat":-16.48383,"lon":145.46725},{"name":"Point Vernon, AU","lat":-25.25727,"lon":152.81725},{"name":"Point Cook, AU","lat":-37.91482,"lon":144.75088},{"name":"Pimpama, AU","lat":-27.81667,"lon":153.3},{"name":"Petrie, AU","lat":-27.26667,"lon":152.98333},{"name":"Penshurst, AU","lat":-33.96667,"lon":151.08333},{"name":"Penrith, AU","lat":-33.75,"lon":150.7},{"name":"Pennant Hills, AU","lat":-33.73783,"lon":151.07216},{"name":"Pendle Hill, AU","lat":-33.80402,"lon":150.95543},{"name":"Pascoe Vale, AU","lat":-37.73333,"lon":144.93333},{"name":"Parkville, AU","lat":-37.78333,"lon":144.95},{"name":"Parkes, AU","lat":-33.1372,"lon":148.1759},{"name":"Parkdale, AU","lat":-37.99187,"lon":145.08128},{"name":"Palmwoods, AU","lat":-26.68584,"lon":152.96135},{"name":"Palm Beach, AU","lat":-28.11694,"lon":153.46584},{"name":"Pakenham, AU","lat":-38.07018,"lon":145.47411},{"name":"Oxley, AU","lat":-27.55,"lon":152.98333},{"name":"Ormond, AU","lat":-37.9,"lon":145.03333},{"name":"Ormiston, AU","lat":-27.51667,"lon":153.25},{"name":"Ormeau, AU","lat":-27.76791,"lon":153.2428},{"name":"Orange, AU","lat":-33.28397,"lon":149.10018},{"name":"Officer, AU","lat":-38.05916,"lon":145.40947},{"name":"Oatley, AU","lat":-33.98004,"lon":151.07201},{"name":"Oakleigh East, AU","lat":-37.9,"lon":145.11667},{"name":"Oakleigh, AU","lat":-37.89809,"lon":145.08837},{"name":"Nunawading, AU","lat":-37.82043,"lon":145.17308},{"name":"Nowra, AU","lat":-34.88422,"lon":150.60036},{"name":"North Sydney, AU","lat":-33.839,"lon":151.2072},{"name":"North Melbourne, AU","lat":-37.79798,"lon":144.94512},{"name":"Northmead, AU","lat":-33.78378,"lon":150.99858},{"name":"North Mackay, AU","lat":-21.12009,"lon":149.17941},{"name":"Fitzroy North, AU","lat":-37.78862,"lon":144.97885},{"name":"Northcote, AU","lat":-37.76667,"lon":145},{"name":"Normanhurst, AU","lat":-33.7237,"lon":151.09576},{"name":"Noosaville, AU","lat":-26.4,"lon":153.06667},{"name":"Noosa Heads, AU","lat":-26.39433,"lon":153.0901},{"name":"Noble Park, AU","lat":-37.96667,"lon":145.16667},{"name":"Newtown, AU","lat":-33.89835,"lon":151.17754},{"name":"Newport, AU","lat":-37.84427,"lon":144.88483},{"name":"Newport, AU","lat":-33.65639,"lon":151.31401},{"name":"New Norfolk, AU","lat":-42.78261,"lon":147.0587},{"name":"Newnham, AU","lat":-41.38969,"lon":147.11397},{"name":"Newcastle, AU","lat":-32.92953,"lon":151.7801},{"name":"Nerang, AU","lat":-27.98941,"lon":153.33633},{"name":"Nelson Bay, AU","lat":-32.72043,"lon":152.14398},{"name":"Narre Warren North, AU","lat":-37.98333,"lon":145.31667},{"name":"Narre Warren, AU","lat":-38.03333,"lon":145.3},{"name":"Narrabri, AU","lat":-30.32488,"lon":149.78266},{"name":"Narrabeen, AU","lat":-33.71277,"lon":151.29736},{"name":"Narara, AU","lat":-33.39593,"lon":151.33527},{"name":"Narangba, AU","lat":-27.20338,"lon":152.95923},{"name":"Naracoorte, AU","lat":-36.95785,"lon":140.7383},{"name":"Nambucca Heads, AU","lat":-30.64318,"lon":153.00884},{"name":"Nambucca, AU","lat":-30.63333,"lon":152.98333},{"name":"Nambour, AU","lat":-26.62613,"lon":152.95941},{"name":"Muswellbrook, AU","lat":-32.26118,"lon":150.89009},{"name":"Murwillumbah, AU","lat":-28.32732,"lon":153.39339},{"name":"Murrumbeena, AU","lat":-37.9,"lon":145.06667},{"name":"Mulgrave, AU","lat":-37.92845,"lon":145.17708},{"name":"Mudgeeraba, AU","lat":-28.08333,"lon":153.36667},{"name":"Mudgee, AU","lat":-32.59426,"lon":149.5871},{"name":"Mount Waverley, AU","lat":-37.87709,"lon":145.12939},{"name":"Mount Martha, AU","lat":-38.26667,"lon":145.01667},{"name":"Mount Gambier, AU","lat":-37.8318,"lon":140.77919},{"name":"Mount Evelyn, AU","lat":-37.78333,"lon":145.38333},{"name":"Mount Eliza, AU","lat":-38.18333,"lon":145.08333},{"name":"Mount Druitt, AU","lat":-33.76667,"lon":150.81667},{"name":"Mount Cotton, AU","lat":-27.63333,"lon":153.23333},{"name":"Mount Colah, AU","lat":-33.68333,"lon":151.11667},{"name":"Moss Vale, AU","lat":-34.55374,"lon":150.37115},{"name":"Mosman, AU","lat":-33.83902,"lon":151.23956},{"name":"Morwell, AU","lat":-38.23476,"lon":146.39499},{"name":"Mortdale, AU","lat":-33.96897,"lon":151.07231},{"name":"Mornington, AU","lat":-38.21792,"lon":145.03876},{"name":"Moree, AU","lat":-29.46278,"lon":149.84157},{"name":"Mordialloc, AU","lat":-38,"lon":145.08333},{"name":"Morayfield, AU","lat":-27.10876,"lon":152.94907},{"name":"South Morang, AU","lat":-37.65,"lon":145.1},{"name":"Mooroopna, AU","lat":-36.4,"lon":145.35},{"name":"Mooroolbark, AU","lat":-37.78247,"lon":145.31682},{"name":"Moorabbin, AU","lat":-37.94146,"lon":145.05779},{"name":"Moonee Ponds, AU","lat":-37.76667,"lon":144.91667},{"name":"Moonah, AU","lat":-42.84617,"lon":147.30228},{"name":"Mooloolaba, AU","lat":-26.68164,"lon":153.11925},{"name":"Montrose, AU","lat":-37.81667,"lon":145.35},{"name":"Montmorency, AU","lat":-37.71667,"lon":145.11667},{"name":"Mona Vale, AU","lat":-33.67757,"lon":151.30307},{"name":"Moe, AU","lat":-38.17828,"lon":146.26099},{"name":"Moama, AU","lat":-36.10413,"lon":144.7608},{"name":"Mittagong, AU","lat":-34.45002,"lon":150.44572},{"name":"Mitchelton, AU","lat":-27.41667,"lon":152.96667},{"name":"Mitcham, AU","lat":-37.81667,"lon":145.2},{"name":"Miranda, AU","lat":-34.03857,"lon":151.10005},{"name":"Minto, AU","lat":-34.03333,"lon":150.85},{"name":"Mill Park, AU","lat":-37.66667,"lon":145.06667},{"name":"Mildura, AU","lat":-34.18551,"lon":142.16251},{"name":"Merrylands, AU","lat":-33.83333,"lon":150.98333},{"name":"Mernda, AU","lat":-37.60075,"lon":145.09555},{"name":"Mentone, AU","lat":-37.98333,"lon":145.06667},{"name":"Menai, AU","lat":-34.01667,"lon":151.01667},{"name":"Melton South, AU","lat":-37.70773,"lon":144.57493},{"name":"Melton, AU","lat":-37.68339,"lon":144.58543},{"name":"Melbourne, AU","lat":-37.814,"lon":144.96332},{"name":"Medowie, AU","lat":-32.7415,"lon":151.8676},{"name":"McKinnon, AU","lat":-37.911,"lon":145.038},{"name":"Maudsland, AU","lat":-27.95,"lon":153.26667},{"name":"Matraville, AU","lat":-33.96344,"lon":151.23195},{"name":"Mascot, AU","lat":-33.92598,"lon":151.19347},{"name":"Maryborough, AU","lat":-37.04562,"lon":143.73923},{"name":"Maryborough, AU","lat":-25.54073,"lon":152.70493},{"name":"Marrickville, AU","lat":-33.90741,"lon":151.15546},{"name":"Maroubra, AU","lat":-33.95,"lon":151.23333},{"name":"Maribyrnong, AU","lat":-37.77241,"lon":144.88435},{"name":"Margate, AU","lat":-27.24761,"lon":153.09809},{"name":"Mareeba, AU","lat":-16.99096,"lon":145.42306},{"name":"Manly, AU","lat":-33.79798,"lon":151.28826},{"name":"Malvern, AU","lat":-37.86259,"lon":145.02811},{"name":"Malabar, AU","lat":-33.96216,"lon":151.24796},{"name":"Maitland, AU","lat":-32.73308,"lon":151.5574},{"name":"Maffra, AU","lat":-37.97132,"lon":146.98366},{"name":"Macleod, AU","lat":-37.723,"lon":145.073},{"name":"Mackay, AU","lat":-21.15345,"lon":149.16554},{"name":"Lysterfield, AU","lat":-37.93333,"lon":145.3},{"name":"Long Jetty, AU","lat":-33.35917,"lon":151.48834},{"name":"Loganlea, AU","lat":-27.67535,"lon":153.13472},{"name":"Loganholme, AU","lat":-27.68444,"lon":153.1864},{"name":"Liverpool, AU","lat":-33.91938,"lon":150.92588},{"name":"Lithgow, AU","lat":-33.4845,"lon":150.14903},{"name":"Lisarow, AU","lat":-33.38333,"lon":151.36667},{"name":"Lindisfarne, AU","lat":-42.84837,"lon":147.36192},{"name":"Lindfield, AU","lat":-33.78333,"lon":151.16667},{"name":"Lilydale, AU","lat":-37.75,"lon":145.35},{"name":"Lidcombe, AU","lat":-33.86436,"lon":151.0397},{"name":"Leumeah, AU","lat":-34.05,"lon":150.83333},{"name":"Leopold, AU","lat":-38.19001,"lon":144.46825},{"name":"Leongatha, AU","lat":-38.47607,"lon":145.94685},{"name":"Leichhardt, AU","lat":-33.88341,"lon":151.15625},{"name":"Leeton, AU","lat":-34.55105,"lon":146.40483},{"name":"Lawnton, AU","lat":-27.28333,"lon":152.98333},{"name":"Lavington, AU","lat":-36.03976,"lon":146.93958},{"name":"Launceston, AU","lat":-41.43876,"lon":147.13467},{"name":"Lara, AU","lat":-38.02388,"lon":144.40617},{"name":"Langwarrin, AU","lat":-38.16667,"lon":145.16667},{"name":"Lane Cove, AU","lat":-33.8157,"lon":151.16679},{"name":"Lalor, AU","lat":-37.66667,"lon":145.01667},{"name":"Lakemba, AU","lat":-33.91972,"lon":151.07592},{"name":"Lake Albert, AU","lat":-35.16667,"lon":147.38333},{"name":"Kyneton, AU","lat":-37.24444,"lon":144.45148},{"name":"Kyabram, AU","lat":-36.31335,"lon":145.05035},{"name":"Kurri Kurri, AU","lat":-32.81933,"lon":151.47908},{"name":"Kogarah, AU","lat":-33.9681,"lon":151.13564},{"name":"Kingston, AU","lat":-42.97638,"lon":147.30351},{"name":"Kingston, AU","lat":-27.66667,"lon":153.11667},{"name":"Kingscliff, AU","lat":-28.25983,"lon":153.57816},{"name":"Kingaroy, AU","lat":-26.53994,"lon":151.8373},{"name":"Kilsyth, AU","lat":-37.8,"lon":145.31667},{"name":"Kilmore, AU","lat":-37.29577,"lon":144.95252},{"name":"Kiama, AU","lat":-34.66828,"lon":150.85219},{"name":"Keysborough, AU","lat":-37.99116,"lon":145.17385},{"name":"Kew, AU","lat":-37.80639,"lon":145.03086},{"name":"Kensington, AU","lat":-33.92019,"lon":151.22241},{"name":"Kensington, AU","lat":-37.79188,"lon":144.93114},{"name":"Kennington, AU","lat":-36.77128,"lon":144.30298},{"name":"Kempsey, AU","lat":-31.07898,"lon":152.83093},{"name":"Kelso, AU","lat":-33.41667,"lon":149.6},{"name":"Keilor, AU","lat":-37.71667,"lon":144.83333},{"name":"Katoomba, AU","lat":-33.71977,"lon":150.30739},{"name":"Kangaroo Flat, AU","lat":-36.8,"lon":144.25},{"name":"Jindabyne, AU","lat":-36.41745,"lon":148.62254},{"name":"Jimboomba, AU","lat":-27.83118,"lon":153.02737},{"name":"Jannali, AU","lat":-34.01643,"lon":151.06065},{"name":"Irymple, AU","lat":-34.23537,"lon":142.17101},{"name":"Inverloch, AU","lat":-38.62659,"lon":145.7226},{"name":"Inverell, AU","lat":-29.77403,"lon":151.11166},{"name":"Ingleburn, AU","lat":-34,"lon":150.86667},{"name":"Hughesdale, AU","lat":-37.9,"lon":145.08333},{"name":"Horsham, AU","lat":-36.71131,"lon":142.19981},{"name":"Hornsby, AU","lat":-33.70244,"lon":151.09931},{"name":"Homebush, AU","lat":-33.86667,"lon":151.08333},{"name":"Holsworthy, AU","lat":-33.98333,"lon":150.96667},{"name":"Hobart, AU","lat":-42.87936,"lon":147.32941},{"name":"Highett, AU","lat":-37.95,"lon":145.05},{"name":"Helensburgh, AU","lat":-34.17836,"lon":150.99522},{"name":"Heidelberg West, AU","lat":-37.73922,"lon":145.04034},{"name":"Heidelberg, AU","lat":-37.75,"lon":145.06667},{"name":"Heathmont, AU","lat":-37.83333,"lon":145.25},{"name":"Heathcote, AU","lat":-34.0841,"lon":151.01305},{"name":"Healesville, AU","lat":-37.65395,"lon":145.51718},{"name":"Haymarket, AU","lat":-33.87868,"lon":151.20526},{"name":"Hawthorn South, AU","lat":-37.8329,"lon":145.0367},{"name":"Hawthorn, AU","lat":-37.81992,"lon":145.0358},{"name":"Hastings, AU","lat":-38.3,"lon":145.18333},{"name":"Harristown, AU","lat":-27.58333,"lon":151.93333},{"name":"Hampton Park, AU","lat":-38.03333,"lon":145.25},{"name":"Hampton, AU","lat":-37.95,"lon":145},{"name":"Hamilton, AU","lat":-37.74425,"lon":142.02202},{"name":"Hallam, AU","lat":-38.01667,"lon":145.26667},{"name":"Haberfield, AU","lat":-33.88296,"lon":151.14389},{"name":"Gympie, AU","lat":-26.18979,"lon":152.66499},{"name":"Gunnedah, AU","lat":-30.98065,"lon":150.25838},{"name":"Grovedale, AU","lat":-38.2,"lon":144.35},{"name":"Griffith, AU","lat":-34.28853,"lon":146.05093},{"name":"Greenvale, AU","lat":-37.63333,"lon":144.86667},{"name":"Greensborough, AU","lat":-37.70462,"lon":145.10302},{"name":"Green Point, AU","lat":-33.444,"lon":151.3682},{"name":"Greenbank, AU","lat":-27.71667,"lon":152.98333},{"name":"Granville, AU","lat":-33.8406,"lon":151.00748},{"name":"Grafton, AU","lat":-29.68104,"lon":152.93394},{"name":"Gracemere, AU","lat":-23.43792,"lon":150.45749},{"name":"Goulburn, AU","lat":-34.75155,"lon":149.72086},{"name":"Gorokan, AU","lat":-33.25764,"lon":151.5097},{"name":"Gordonvale, AU","lat":-17.09959,"lon":145.78038},{"name":"Gordon, AU","lat":-33.75535,"lon":151.15115},{"name":"Goonellabah, AU","lat":-28.81667,"lon":153.31667},{"name":"Goondiwindi, AU","lat":-28.54709,"lon":150.30546},{"name":"Goodna, AU","lat":-27.61046,"lon":152.89896},{"name":"Gold Coast, AU","lat":-28.00029,"lon":153.43088},{"name":"Glen Waverley, AU","lat":-37.87811,"lon":145.16476},{"name":"Glenroy, AU","lat":-37.7,"lon":144.93333},{"name":"Glenorchy, AU","lat":-42.83343,"lon":147.27593},{"name":"Glen Iris, AU","lat":-37.86667,"lon":145.06667},{"name":"Glen Innes, AU","lat":-29.73485,"lon":151.7385},{"name":"Glenhaven, AU","lat":-33.7,"lon":151},{"name":"Glenfield, AU","lat":-33.96667,"lon":150.9},{"name":"Glenferrie, AU","lat":-37.83333,"lon":145.05},{"name":"Glebe, AU","lat":-33.87884,"lon":151.18426},{"name":"Gladstone, AU","lat":-23.84852,"lon":151.25775},{"name":"Gisborne, AU","lat":-37.48858,"lon":144.59421},{"name":"Geelong West, AU","lat":-38.13888,"lon":144.34842},{"name":"Geelong, AU","lat":-38.14711,"lon":144.36069},{"name":"Gatton, AU","lat":-27.55873,"lon":152.27618},{"name":"Frankston East, AU","lat":-38.13333,"lon":145.13333},{"name":"Frankston, AU","lat":-38.14458,"lon":145.12291},{"name":"Forster, AU","lat":-32.18136,"lon":152.51715},{"name":"Forest Hill, AU","lat":-37.83333,"lon":145.18333},{"name":"Forbes, AU","lat":-33.38436,"lon":148.0076},{"name":"Footscray, AU","lat":-37.8,"lon":144.9},{"name":"Fitzroy, AU","lat":-37.79839,"lon":144.97833},{"name":"Fawkner, AU","lat":-37.71667,"lon":144.96667},{"name":"Fairfield, AU","lat":-33.86667,"lon":150.95},{"name":"Essendon, AU","lat":-37.74981,"lon":144.9109},{"name":"Epping, AU","lat":-37.65,"lon":145.03333},{"name":"Epping, AU","lat":-33.77271,"lon":151.08184},{"name":"Engadine, AU","lat":-34.06564,"lon":151.01266},{"name":"Emu Plains, AU","lat":-33.75,"lon":150.66667},{"name":"Emerald, AU","lat":-37.93167,"lon":145.44093},{"name":"Emerald, AU","lat":-23.52296,"lon":148.15784},{"name":"Eltham North, AU","lat":-37.7,"lon":145.15},{"name":"Eltham, AU","lat":-37.73333,"lon":145.15},{"name":"Elsternwick, AU","lat":-37.88639,"lon":145.0025},{"name":"Eight Mile Plains, AU","lat":-27.58333,"lon":153.1},{"name":"Edmonton, AU","lat":-17.01902,"lon":145.74443},{"name":"Edithvale, AU","lat":-38.03724,"lon":145.10974},{"name":"Echuca, AU","lat":-36.14057,"lon":144.75185},{"name":"Eastwood, AU","lat":-33.79176,"lon":151.08057},{"name":"East Maitland, AU","lat":-32.75,"lon":151.58333},{"name":"East Ballina, AU","lat":-28.85709,"lon":153.58736},{"name":"Earlwood, AU","lat":-33.9209,"lon":151.12506},{"name":"Eaglehawk, AU","lat":-36.71611,"lon":144.25049},{"name":"Eagleby, AU","lat":-27.68333,"lon":153.21667},{"name":"Dural, AU","lat":-33.68333,"lon":151.01667},{"name":"Dubbo, AU","lat":-32.24295,"lon":148.60484},{"name":"Drouin, AU","lat":-38.13658,"lon":145.85838},{"name":"Dromana, AU","lat":-38.33375,"lon":144.96458},{"name":"Doreen, AU","lat":-37.6,"lon":145.15},{"name":"Doonside, AU","lat":-33.76667,"lon":150.86667},{"name":"Donvale, AU","lat":-37.7891,"lon":145.17488},{"name":"Doncaster East, AU","lat":-37.78761,"lon":145.14888},{"name":"Doncaster, AU","lat":-37.78828,"lon":145.12373},{"name":"Dingley Village, AU","lat":-37.9827,"lon":145.1342},{"name":"Diamond Creek, AU","lat":-37.66667,"lon":145.15},{"name":"Devonport, AU","lat":-41.17695,"lon":146.35152},{"name":"Derrimut, AU","lat":-37.79238,"lon":144.76994},{"name":"Deniliquin, AU","lat":-35.53245,"lon":144.95364},{"name":"Deer Park, AU","lat":-37.76722,"lon":144.76657},{"name":"Deception Bay, AU","lat":-27.19354,"lon":153.02631},{"name":"Darlinghurst, AU","lat":-33.87939,"lon":151.21925},{"name":"Darley, AU","lat":-37.65807,"lon":144.44344},{"name":"Dapto, AU","lat":-34.50386,"lon":150.79416},{"name":"Dandenong, AU","lat":-37.98333,"lon":145.2},{"name":"Dalby, AU","lat":-27.18169,"lon":151.26205},{"name":"Croydon North, AU","lat":-37.76741,"lon":145.29073},{"name":"Croydon, AU","lat":-37.8,"lon":145.28333},{"name":"Croydon, AU","lat":-33.88333,"lon":151.11667},{"name":"Cronulla, AU","lat":-34.06251,"lon":151.14961},{"name":"Cranbourne, AU","lat":-38.11342,"lon":145.28326},{"name":"Craigieburn, AU","lat":-37.6,"lon":144.95},{"name":"Cowra, AU","lat":-33.83554,"lon":148.69663},{"name":"Corrimal, AU","lat":-34.37864,"lon":150.90356},{"name":"Corowa, AU","lat":-35.99704,"lon":146.38552},{"name":"Cornubia, AU","lat":-27.66667,"lon":153.21667},{"name":"Corio, AU","lat":-38.08333,"lon":144.38333},{"name":"Cootamundra, AU","lat":-34.64095,"lon":148.02838},{"name":"Coorparoo, AU","lat":-27.49325,"lon":153.05826},{"name":"Cooranbong, AU","lat":-33.07622,"lon":151.45409},{"name":"Cooma, AU","lat":-36.23517,"lon":149.12408},{"name":"Coolum Beach, AU","lat":-26.5283,"lon":153.08809},{"name":"Coolangatta, AU","lat":-28.16944,"lon":153.53471},{"name":"Coogee, AU","lat":-33.9205,"lon":151.25522},{"name":"Concord, AU","lat":-33.84722,"lon":151.10381},{"name":"Collingwood, AU","lat":-37.80253,"lon":144.98872},{"name":"Collaroy, AU","lat":-33.73205,"lon":151.30118},{"name":"Colac, AU","lat":-38.339,"lon":143.58489},{"name":"Coffs Harbour, AU","lat":-30.29626,"lon":153.11351},{"name":"Coburg, AU","lat":-37.75,"lon":144.96667},{"name":"Cobram, AU","lat":-35.92069,"lon":145.64066},{"name":"Clyde North, AU","lat":-38.11667,"lon":145.33333},{"name":"Clyde, AU","lat":-38.13333,"lon":145.33333},{"name":"Clifton Springs, AU","lat":-38.1567,"lon":144.5551},{"name":"Clifton Hill, AU","lat":-37.792,"lon":144.995},{"name":"Cleveland, AU","lat":-27.52677,"lon":153.26516},{"name":"Clayton South, AU","lat":-37.93333,"lon":145.11667},{"name":"Clayton, AU","lat":-37.91667,"lon":145.11667},{"name":"Clarinda, AU","lat":-37.94066,"lon":145.10238},{"name":"Claremont, AU","lat":-42.78333,"lon":147.25},{"name":"Wollongong, AU","lat":-34.424,"lon":150.89345},{"name":"Chipping Norton, AU","lat":-33.91801,"lon":150.95927},{"name":"Chippendale, AU","lat":-33.88673,"lon":151.19745},{"name":"Chinchilla, AU","lat":-26.73787,"lon":150.6297},{"name":"Chelsea Heights, AU","lat":-38.03333,"lon":145.13333},{"name":"Chelsea, AU","lat":-38.05,"lon":145.11667},{"name":"Chatswood, AU","lat":-33.8,"lon":151.18333},{"name":"Charters Towers, AU","lat":-20.07671,"lon":146.26353},{"name":"Charlestown, AU","lat":-32.96828,"lon":151.69318},{"name":"Cessnock, AU","lat":-32.83211,"lon":151.35623},{"name":"Caulfield North, AU","lat":-37.8739,"lon":145.02485},{"name":"Caulfield, AU","lat":-37.88251,"lon":145.02288},{"name":"Castlemaine, AU","lat":-37.06709,"lon":144.21684},{"name":"Castle Hill, AU","lat":-33.73333,"lon":151},{"name":"Casino, AU","lat":-28.85819,"lon":153.04748},{"name":"Carrum Downs, AU","lat":-38.09968,"lon":145.17248},{"name":"Carnegie, AU","lat":-37.89359,"lon":145.05534},{"name":"Carlton North, AU","lat":-37.78818,"lon":144.97014},{"name":"Carlton, AU","lat":-37.8,"lon":144.96667},{"name":"Carlingford, AU","lat":-33.78269,"lon":151.04888},{"name":"Caringbah, AU","lat":-34.03534,"lon":151.12468},{"name":"Capalaba, AU","lat":-27.54333,"lon":153.20287},{"name":"Cannonvale, AU","lat":-20.27681,"lon":148.69759},{"name":"Canberra, AU","lat":-35.28346,"lon":149.12807},{"name":"Camperdown, AU","lat":-33.88965,"lon":151.17642},{"name":"Campbelltown, AU","lat":-34.06667,"lon":150.81667},{"name":"Campbell, AU","lat":-35.28907,"lon":149.15382},{"name":"Camberwell, AU","lat":-37.84205,"lon":145.0694},{"name":"Calliope, AU","lat":-24.00705,"lon":151.20033},{"name":"Cairns, AU","lat":-16.92366,"lon":145.76613},{"name":"Caboolture, AU","lat":-27.08465,"lon":152.9511},{"name":"Byron Bay, AU","lat":-28.64989,"lon":153.61246},{"name":"Burwood East, AU","lat":-37.85,"lon":145.15},{"name":"Burwood, AU","lat":-33.88333,"lon":151.1},{"name":"Burpengary, AU","lat":-27.15746,"lon":152.95758},{"name":"Burnie, AU","lat":-41.05584,"lon":145.90375},{"name":"Burleigh Heads, AU","lat":-28.1,"lon":153.45},{"name":"Bundamba, AU","lat":-27.60947,"lon":152.81133},{"name":"Bundaberg, AU","lat":-24.86621,"lon":152.3479},{"name":"Bulli, AU","lat":-34.33834,"lon":150.91347},{"name":"Bulleen, AU","lat":-37.76667,"lon":145.08333},{"name":"Buderim, AU","lat":-26.68443,"lon":153.05705},{"name":"Brunswick West, AU","lat":-37.76461,"lon":144.94383},{"name":"Brunswick East, AU","lat":-37.77255,"lon":144.97241},{"name":"Brunswick, AU","lat":-37.76667,"lon":144.96667},{"name":"Broken Hill, AU","lat":-31.9652,"lon":141.4512},{"name":"Broadmeadows, AU","lat":-37.68015,"lon":144.91877},{"name":"Broadbeach, AU","lat":-28.02782,"lon":153.43343},{"name":"Brisbane, AU","lat":-27.46794,"lon":153.02809},{"name":"Brighton, AU","lat":-37.90561,"lon":145.00279},{"name":"Brighton, AU","lat":-27.29582,"lon":153.05721},{"name":"Box Hill, AU","lat":-37.81887,"lon":145.12545},{"name":"Bowral, AU","lat":-34.4775,"lon":150.4204},